District,Median Income,Latitude,Longitude,jowar,bajra,maize,barley,small millets,ragi,arhar,moong,masur,urd,peas,khesari,gram products,besan
Kupwara,"1,381",34.5261786,74.2546136,0.00,0.00,5.07,0.00,0.00,0.00,1.97,1.23,1.11,0.48,0.59,0.25,0.00,0.00
Baramula,"1,562",34.1990498,74.3499496,0.00,15.00,7.07,0.00,0.00,0.00,0.88,1.36,1.12,0.67,0.90,0.91,1.83,1.34
Srinagar,"2,041",34.0836708,74.7972825,0.00,0.00,1.39,0.00,0.00,0.00,0.58,0.68,0.66,0.50,0.77,1.43,0.93,1.00
Badgam,"1,360",34.0117793,74.7746684,0.00,0.00,6.20,0.00,0.00,0.00,0.00,0.76,0.71,0.00,0.56,0.00,1.00,0.00
Pulwama,"1,599",33.8716117,74.8945692,0.00,0.00,0.00,4.00,0.00,0.00,0.00,0.94,0.00,0.00,0.00,0.00,0.00,0.00
Anantnag,"1,534",33.7311255,75.1487007,0.00,0.00,15.23,0.00,0.00,0.00,0.00,0.97,1.50,0.00,0.00,0.00,1.00,0.00
Leh,"1,967",34.1663838,77.4966975,0.00,0.00,0.00,0.00,0.00,0.00,0.54,0.75,0.57,0.31,1.00,0.53,0.00,0.00
Kargil,"1,761",34.5584489,76.099508,4.56,3.04,0.00,4.00,0.00,0.00,0.00,1.11,1.15,0.00,0.87,0.00,1.00,0.97
Doda,"1,348",33.1457497,75.5480491,22.00,0.00,11.74,0.00,0.00,0.00,0.00,0.62,0.58,0.91,0.69,1.50,0.50,0.35
Udhampur,"1,224",32.9140588,75.1429652,0.00,0.00,15.40,5.00,0.00,0.00,1.75,0.65,0.58,0.83,0.58,0.50,0.88,0.28
Punch,"1,396",33.5371751,73.7383518,0.00,0.00,15.47,0.00,0.00,0.00,0.99,0.79,0.93,0.99,1.57,0.00,0.00,0.33
Rajauri,"1,540",33.3786445,74.2880047,0.00,5.00,16.78,0.00,0.00,0.00,0.97,0.79,0.90,0.92,0.96,2.50,0.46,0.35
Jammu,"2,571",32.7266016,74.8570259,0.00,0.00,4.79,0.00,0.00,0.00,0.89,0.63,0.60,1.04,0.56,1.50,0.76,0.40
Kathua,"1,857",32.3864799,75.5172688,0.00,0.00,10.88,0.00,0.00,0.00,0.67,0.57,0.59,1.16,0.49,0.00,0.50,0.35
Chamba,"1,383",32.5533633,76.1258083,0.00,0.00,9.98,0.00,0.00,0.00,0.69,0.59,0.62,1.28,1.00,1.91,0.53,0.39
Kangra,"1,579",32.0998031,76.2691006,0.00,2.53,7.36,10.00,0.00,0.00,0.79,0.61,0.74,1.01,0.99,1.00,0.58,0.37
Lahul,"1,582",32.6192107,77.3783789,0.00,0.00,0.00,3.66,0.00,0.00,0.50,0.60,0.81,1.03,0.25,0.00,0.00,0.25
Kullu,"1,469",31.957851,77.1094597,0.00,2.00,8.62,0.00,0.00,0.00,0.68,0.78,0.78,1.09,1.00,0.00,0.00,0.46
Mandi,"1,361",31.7081655,76.9313675,0.50,0.50,5.94,0.00,0.00,0.00,0.76,0.76,0.77,1.11,0.82,1.10,1.14,0.43
Hamirpur,"2,591",31.6861745,76.5213092,0.00,10.00,9.84,0.25,0.00,0.00,0.75,0.93,0.79,1.47,0.77,0.50,0.96,0.77
Una,"2,286",31.468445,76.2707745,0.00,5.69,12.45,5.00,0.00,0.00,0.87,0.80,0.79,1.18,0.50,1.00,1.02,0.71
Bilaspur,"1,999",30.3029069,77.2918386,20.00,0.00,9.53,0.00,0.00,0.00,0.73,1.06,0.85,1.28,1.07,0.84,0.94,0.69
Solan,"3,109",30.9044857,77.0967357,0.00,30.00,13.83,20.00,2.00,0.00,0.98,0.88,0.95,0.96,0.92,0.50,0.00,0.78
Sirmaur,"1,929",30.5628455,77.4701972,0.00,0.00,17.40,0.00,0.00,0.00,0.84,0.75,0.87,1.31,3.93,0.00,0.00,0.78
Shimla,"2,351",31.1048145,77.1734033,0.00,0.00,3.70,0.00,0.00,0.00,0.99,1.04,1.08,1.16,1.67,1.00,0.50,0.64
Kinnaur,"2,105",31.6509576,78.4751945,0.00,0.00,20.00,10.00,0.00,0.00,1.00,1.23,1.06,1.26,4.00,0.00,0.00,2.14
Gurdaspur,"2,015",32.0419424,75.4053367,0.00,0.00,2.80,0.00,0.00,0.00,0.67,0.50,0.43,0.79,0.54,0.00,0.00,0.57
Amritsar,"1,868",31.6339793,74.8722642,0.00,0.00,3.38,1.00,0.00,0.00,1.33,0.69,0.72,0.88,1.00,0.00,0.00,0.63
Kapurthala,"2,040",31.3714801,75.3936808,0.00,0.00,2.22,0.00,0.00,0.00,0.66,0.63,0.53,0.44,0.00,0.00,0.37,0.44
Jalandhar,"1,902",31.3260152,75.5761829,4.00,2.00,2.46,0.00,0.20,0.00,0.57,0.62,0.54,0.49,0.89,1.00,0.57,0.39
Hoshiarpur,"2,174",31.5143178,75.911483,0.00,0.00,3.63,0.00,0.00,0.00,1.07,0.60,0.45,0.74,1.00,0.75,1.00,0.50
Nawanshahr,"1,741",31.0912954,76.0391909,0.00,0.00,3.24,0.00,0.00,0.00,0.44,0.60,0.56,0.41,0.25,0.00,0.00,0.49
Rupnagar,"2,215",30.9659168,76.5230234,0.00,0.00,2.36,0.00,0.00,0.00,0.91,0.87,0.67,0.72,1.00,0.00,0.00,0.70
Fatehgarh,"1,886",30.6479174,76.3897733,0.00,0.00,8.52,0.00,0.00,0.00,0.89,1.24,0.93,1.02,0.50,0.00,1.02,1.00
Ludhiana,"2,238",30.900965,75.8572758,0.00,0.00,1.90,0.00,2.00,0.00,1.09,0.80,0.68,0.74,0.50,1.00,0.63,0.62
Moga,"1,950",30.8164603,75.1717093,0.00,0.00,3.09,0.00,0.00,0.00,5.00,1.03,0.78,0.65,0.00,0.00,1.00,0.94
Firozpur,"1,805",30.9331348,74.6224755,0.00,0.00,1.91,0.00,0.00,0.00,0.53,0.97,0.69,0.76,0.00,0.00,0.00,1.32
Muktsar,"1,595",30.4766391,74.511172,0.00,0.00,0.00,0.00,0.00,0.00,0.78,0.84,0.83,0.99,0.00,0.00,0.00,0.70
Faridkot,"2,723",30.678187,74.7395591,0.00,0.00,2.72,0.00,0.00,0.00,1.00,0.99,0.68,0.48,0.00,0.00,0.00,0.72
Bathinda,"2,568",30.210994,74.9454745,0.00,0.79,0.86,0.00,0.00,0.00,0.32,0.74,0.40,0.74,1.00,0.00,0.37,0.49
Mansa,"2,142",29.9995069,75.3936808,0.00,1.02,1.00,0.00,0.00,0.00,1.50,1.01,0.72,0.56,0.00,0.00,0.69,0.65
Sangrur,"2,241",30.2457963,75.8420716,0.00,0.00,2.25,0.00,0.00,0.00,0.64,1.11,0.64,0.96,1.00,0.00,0.00,0.85
Patiala,"2,446",30.3397809,76.3868797,0.00,0.00,4.07,0.00,0.00,0.00,0.79,0.88,0.67,0.77,0.76,0.00,0.37,0.98
SJAS Nagar (Mohali),"2,427",30.7046486,76.7178726,0.00,0.00,1.64,0.00,0.00,0.00,0.62,0.71,0.62,0.81,1.34,0.00,0.00,0.67
Barnala,"1,843",30.3667712,75.5093329,0.00,0.00,4.57,0.00,0.00,0.00,0.00,0.93,0.76,0.85,0.50,0.00,0.00,0.54
Tarn Taran,"1,931",31.3216675,74.5159768,0.00,0.00,2.39,0.00,0.00,0.00,1.18,0.93,0.98,0.80,0.00,0.00,0.00,0.67
Chandigarh,"2,638",30.7399738,76.7567368,0.00,0.00,2.14,0.00,0.00,0.00,1.10,0.82,0.80,0.91,0.88,0.00,0.75,0.70
Uttarkashi,"1,808",30.7268307,78.4354042,0.00,0.00,1.46,0.00,0.00,5.00,0.88,0.43,1.02,0.56,0.72,2.00,0.00,0.33
Chamoli,"1,405",30.4041045,79.3317691,0.00,0.00,1.80,0.00,4.97,4.66,0.88,0.92,0.76,0.72,0.93,0.00,0.00,0.39
Rudraprayag,"1,583",30.2844141,78.9811407,0.00,0.00,0.00,0.00,4.93,4.57,0.91,0.50,0.85,0.69,1.00,0.00,0.00,0.43
Tehri,"1,215",30.3011858,78.5660852,0.00,0.00,1.34,0.00,2.54,3.45,1.18,0.89,1.14,1.00,1.91,1.00,0.00,0.43
Dehradun,"1,873",30.3145745,77.9984405,2.00,0.00,3.33,0.00,0.50,1.21,1.06,0.54,0.87,0.66,1.00,1.70,0.52,0.51
Garhwal,"1,648",29.8687682,78.8382644,0.00,0.00,1.00,0.00,4.52,4.54,0.96,0.57,0.80,0.64,0.80,1.00,0.65,0.41
Pithoragarh,"1,426",29.5828604,80.2181884,0.00,0.00,2.00,0.00,0.00,1.65,0.74,0.95,1.09,0.79,0.61,0.00,0.50,0.47
Bageshwar,"1,506",29.8403606,79.769426,0.00,0.00,0.00,0.00,0.00,4.48,0.82,0.65,1.26,1.00,2.34,0.77,0.00,0.50
Almora,"1,640",29.5892407,79.646666,0.00,0.00,0.00,0.00,0.00,5.50,0.78,0.47,1.06,0.80,0.96,0.00,0.00,0.49
Champawat,"1,530",29.3360974,80.0910275,0.00,0.00,0.00,0.00,0.00,3.44,1.20,0.60,1.03,1.14,1.28,0.00,0.00,0.42
Nainital,"1,875",29.3803039,79.4635658,0.00,0.00,0.00,0.00,0.00,0.00,1.04,0.62,1.24,0.83,1.03,0.00,0.00,0.82
Udham,"1,705",28.9609653,79.5153773,0.00,0.00,0.00,0.00,0.00,0.00,0.98,1.14,1.27,0.91,0.82,0.58,1.00,0.48
Hardwar,"1,551",29.9456906,78.1642478,0.00,0.00,2.52,0.00,0.00,0.00,1.11,0.90,1.16,0.89,0.54,3.00,0.25,0.61
Nainital(Hills),"1,373",29.4093818,79.4353962,0.00,0.00,0.00,0.00,0.00,6.47,1.23,0.57,1.17,1.57,1.95,0.00,0.00,0.69
Dehradun(Hills),"1,315",30.2838211,77.9079728,1.00,0.00,32.98,0.00,0.00,3.70,1.13,0.53,0.87,0.96,0.25,0.00,0.00,0.61
Panchkula,"1,812",30.6942091,76.860565,0.00,0.00,1.51,0.00,0.00,0.00,1.47,0.93,1.00,0.89,1.44,0.00,2.00,0.72
Ambala,"1,867",30.3781788,76.7766974,0.00,0.00,2.68,0.00,0.00,0.00,0.93,0.95,1.00,1.18,1.17,0.00,0.25,0.71
Yamunanagar,"1,533",30.1290485,77.2673901,0.00,0.00,1.29,0.10,0.00,0.00,1.01,0.91,0.88,0.87,0.39,0.00,1.00,0.59
Kurukshetra,"1,804",29.9695121,76.878282,0.00,2.00,5.54,0.00,0.00,0.00,0.73,0.79,0.79,0.87,0.51,0.00,1.11,0.61
Kaithal,"1,724",29.7856734,76.3984537,0.00,1.32,1.88,0.00,0.00,0.00,0.70,0.77,0.91,0.76,0.00,0.00,0.50,0.86
Karnal,"1,942",29.6856929,76.9904825,0.00,2.86,2.00,0.00,0.00,0.00,0.73,0.97,0.77,0.62,0.00,0.00,0.33,0.71
Panipat,"2,075",29.3909464,76.9635023,0.00,3.23,3.00,0.00,0.00,0.00,1.76,0.96,0.86,0.70,1.22,0.00,0.92,0.78
Sonipat,"2,141",28.9287735,77.091281,0.00,5.94,0.00,0.00,0.00,0.00,0.00,0.42,0.32,0.28,0.00,0.00,0.25,0.39
Jind,"2,347",29.3211153,76.3058328,0.00,2.78,2.73,0.00,0.00,0.00,1.25,0.60,0.42,0.48,2.00,0.00,0.32,0.45
Fatehabad,"1,718",29.5077159,75.4519516,0.00,9.82,3.00,0.00,0.00,0.00,1.28,1.20,0.70,0.91,1.00,0.00,0.00,1.08
Sirsa,"1,691",29.5335931,75.0177029,0.00,5.83,2.00,0.00,0.00,0.00,0.47,0.91,0.48,0.47,0.00,0.00,0.00,0.74
Hisar,"1,776",29.1491875,75.7216527,0.00,3.34,0.00,0.00,0.00,0.00,1.62,0.99,0.43,0.66,0.73,0.00,1.00,0.90
Bhiwani,"2,149",28.7990445,76.1335112,0.00,4.41,0.00,15.00,0.00,0.00,0.75,0.84,0.68,0.69,0.47,0.00,0.79,1.15
Rohtak,"2,459",28.8955152,76.606611,0.00,2.11,0.83,0.00,0.00,0.00,0.50,0.87,0.70,0.63,0.25,0.00,0.89,0.80
Jhajjar,"2,188",28.6079115,76.6571775,2.00,2.19,3.47,0.00,0.00,0.00,0.58,0.97,0.67,0.55,0.94,0.50,0.00,0.76
Mahendragarh,"1,974",28.2710192,76.1493891,0.00,15.57,0.00,0.00,0.00,0.00,0.81,1.10,0.66,0.69,1.00,0.00,0.50,0.96
Rewari,"2,460",28.1927631,76.6239423,0.00,3.37,0.00,0.00,0.00,0.00,0.69,0.84,0.71,0.60,0.00,0.00,0.95,1.02
Gurgaon,"3,339",28.4594965,77.0266383,0.00,5.60,1.50,0.00,0.00,0.00,0.80,0.87,0.54,0.70,0.50,0.00,0.50,0.80
Faridabad,"2,526",28.4089123,77.3177894,0.00,2.00,0.00,1.00,0.00,0.00,0.71,0.81,0.70,0.51,0.61,0.25,0.00,0.81
Mewat,"1,535",28.0106916,77.0564464,0.00,4.25,0.66,0.00,0.00,0.00,0.62,1.12,0.70,0.55,0.50,0.50,0.25,1.19
North West Delhi,"2,879",28.7705774,77.0794705,0.00,0.00,2.73,0.46,0.00,0.00,1.02,0.75,0.84,0.64,0.57,0.00,0.58,0.55
North Delhi,"3,237",28.7483894,77.2060241,0.00,0.00,0.00,0.00,0.00,0.00,1.81,1.03,0.65,0.56,0.00,0.00,0.00,0.39
North East Delhi,"2,237",28.6965644,77.2635038,0.00,0.00,0.00,0.00,0.00,0.00,0.98,0.67,0.67,0.45,0.00,0.50,0.63,0.46
East Delhi,"1,915",28.6195591,77.2979782,0.00,0.00,0.00,0.00,0.00,0.00,0.66,0.56,0.70,0.64,0.20,0.00,0.00,0.60
New Delhi,"3,762",28.5275198,77.0688974,0.00,0.00,0.00,0.00,0.00,0.00,0.83,0.46,0.88,1.00,0.00,0.00,0.00,0.31
West Delhi,"1,954",28.6542826,76.9973191,0.00,0.00,0.00,0.00,0.00,0.00,1.59,1.14,0.83,0.38,0.00,0.00,0.00,0.60
South West Delhi,"3,222",28.5827577,77.0334179,0.00,1.91,0.00,0.00,0.00,0.00,1.00,0.50,0.53,0.61,0.50,0.00,0.00,0.43
South Delhi,"2,902",28.5086497,77.2175223,0.00,0.00,2.00,0.50,0.00,0.00,1.24,0.84,0.67,0.87,0.50,0.50,0.15,0.46
Ganganagar,"1,689",29.9038399,73.8771901,0.00,11.57,2.95,0.00,0.00,0.00,0.71,1.37,0.64,0.50,0.98,0.00,0.00,0.81
Hanumangarh,"1,793",29.614436,74.2858121,0.00,4.21,10.00,0.00,0.00,0.00,0.62,1.12,0.78,0.74,0.00,0.00,0.00,0.76
Bikaner,"1,642",28.0229348,73.3119159,0.00,8.20,0.00,0.00,0.00,0.00,0.83,0.95,0.79,0.99,0.81,0.00,0.00,0.77
Churu,"1,598",28.2920484,74.9617924,0.00,27.72,0.00,0.00,0.00,0.00,0.73,1.30,0.68,0.41,0.00,0.00,0.00,0.82
Jhunjhunun,"2,140",28.1288747,75.3995089,0.00,12.90,0.00,0.50,0.00,0.00,1.12,1.22,0.59,0.81,0.00,0.00,0.00,0.89
Alwar,"1,688",27.5529907,76.6345735,2.00,28.25,0.00,6.92,0.00,0.00,0.65,0.96,0.66,0.62,0.50,0.00,0.50,1.26
Bharatpur,"1,117",27.216981,77.489515,0.00,16.21,80.00,0.00,0.00,0.00,0.66,0.75,0.53,0.61,1.00,0.00,0.52,0.97
Dhaulpur,"1,164",26.7025181,77.893391,0.00,26.80,0.00,1.00,0.00,0.00,0.69,0.72,0.51,0.64,1.30,0.00,0.00,1.16
Karauli,"1,267",26.488323,77.0161436,0.00,5.86,0.50,0.00,0.00,0.00,0.76,0.72,0.55,0.47,2.52,0.00,1.00,1.00
Sawai,"1,233",26.0377772,76.3521514,2.00,14.19,5.00,0.00,0.00,0.00,1.03,0.77,0.49,0.59,0.00,0.00,0.80,1.04
Dausa,"1,708",26.8931931,76.3375284,0.00,19.35,0.00,0.00,0.00,0.00,0.49,0.72,0.34,0.43,0.25,0.00,0.00,0.93
Jaipur,"1,955",26.9124336,75.7872709,1.36,17.41,1.62,17.63,0.00,0.00,0.54,0.81,0.51,0.45,0.32,0.00,0.43,0.79
Sikar,"1,806",27.6094,75.139911,5.74,14.31,3.00,0.00,0.00,0.00,1.47,1.14,0.58,0.74,0.00,2.00,1.66,1.64
Nagaur,"1,528",27.1991222,73.740924,10.00,31.55,7.17,0.00,0.00,0.00,0.35,1.32,0.50,0.85,2.00,0.00,0.00,0.58
Jodhpur,"1,744",26.2389469,73.0243094,10.48,47.52,0.00,0.00,2.00,0.60,0.53,1.49,0.91,0.50,0.00,0.00,1.00,1.05
Jaisalmer,"1,442",26.9157487,70.9083443,70.00,49.53,0.00,0.00,0.00,0.00,0.15,1.38,0.92,0.38,0.00,0.00,0.50,0.50
Barmer,"1,783",25.7531537,71.4180622,58.41,52.94,0.00,0.00,0.00,0.00,0.63,1.53,0.74,0.57,0.00,0.00,0.25,0.54
Jalor,"1,567",25.3444799,72.6253763,0.00,44.59,0.00,0.00,0.00,0.00,0.61,1.67,0.52,0.45,0.00,0.00,0.00,0.70
Sirohi,"1,299",24.8851548,72.8574558,0.00,5.00,14.62,0.00,0.00,0.00,0.61,0.72,0.48,0.66,0.50,0.00,0.00,1.88
Pali,"1,764",25.7710893,73.3234478,1.43,30.29,16.85,0.00,0.00,0.00,0.53,1.71,0.52,0.45,1.00,0.00,0.50,0.86
Ajmer,"1,751",26.4498954,74.6399163,0.00,23.67,15.72,30.00,0.00,0.00,0.43,0.91,0.56,0.66,0.25,0.00,0.00,0.57
Tonk,"1,587",26.1620402,75.7894716,0.00,7.39,4.57,0.00,0.00,0.00,0.41,0.44,0.30,0.35,0.20,0.00,0.00,0.62
Bundi,"1,234",25.4305144,75.6499025,0.00,2.87,9.88,0.00,0.00,0.00,0.66,0.85,0.57,0.67,0.10,0.00,0.00,0.73
Bhilwara,"2,125",25.321377,74.586953,0.00,21.80,12.73,0.00,0.00,0.00,0.46,0.86,0.51,0.97,0.50,0.00,0.00,0.56
Rajsamand,"1,310",25.0714851,73.8830701,0.00,0.00,10.13,0.00,0.00,0.00,0.67,0.69,0.51,0.90,0.00,0.00,0.00,0.69
Udaipur,"1,310",24.585445,73.712479,0.00,0.00,15.31,0.00,0.63,0.00,0.75,0.68,0.40,0.82,0.20,0.00,0.00,0.45
Dungarpur,890,23.841668,73.7146623,0.00,3.00,4.67,0.00,2.00,0.00,0.73,0.54,0.52,0.82,1.00,0.00,0.00,0.71
Banswara,"1,278",23.5461394,74.4349761,0.00,0.00,16.96,0.00,0.00,0.00,1.24,0.89,0.36,1.04,0.20,0.00,0.00,0.59
Chittaurgarh,"1,524",24.8887435,74.6269216,0.00,1.00,8.87,0.00,0.00,0.00,0.72,0.72,0.59,0.75,0.67,0.00,0.00,0.59
Kota,"1,535",25.2138156,75.8647527,1.82,4.58,13.26,0.00,0.00,0.00,0.68,0.81,0.51,0.63,0.50,0.00,1.00,0.73
Baran,"1,398",25.1011438,76.5131637,0.00,2.64,3.31,0.00,0.00,0.00,0.76,0.63,0.45,0.43,0.50,0.00,0.00,0.59
Jhalawar,"1,375",24.5973494,76.1609838,5.57,2.78,3.97,0.00,0.00,0.00,0.75,0.68,0.47,0.70,0.50,0.00,1.50,0.89
Saharanpur,"1,379",29.967079,77.5510172,0.00,0.00,0.00,0.00,0.00,0.00,0.97,1.00,1.41,1.62,1.00,0.00,0.47,0.90
Muzaffarnagar,"1,374",29.4726817,77.7085091,0.00,0.00,1.59,2.00,0.00,0.00,0.99,0.90,1.16,1.19,2.00,0.00,0.71,0.83
Bijnor,"1,000",29.3724422,78.1358472,2.00,0.00,1.00,0.00,0.00,0.00,1.52,1.29,1.32,1.53,1.32,0.50,0.00,0.69
Moradabad,"1,051",28.8386481,78.7733286,0.00,0.00,1.19,0.00,0.00,0.00,1.53,0.60,0.95,1.34,1.06,0.00,0.00,0.72
Rampur,996,28.7893041,79.0249516,0.00,0.00,0.00,0.00,0.00,0.00,1.60,0.68,1.14,1.62,0.92,0.00,0.00,1.00
Jyotiba Phule Nagar,"1,002",28.7715965,78.3387066,0.00,0.00,0.50,0.00,0.00,0.00,1.25,1.10,1.29,1.80,1.58,1.00,0.00,0.67
Meerut,"1,821",28.9844618,77.7064137,0.00,1.96,2.55,0.00,0.00,0.00,0.81,0.54,1.12,0.85,0.72,0.00,0.60,0.95
Baghpat,"2,310",28.9421618,77.2261452,0.00,0.00,3.55,0.00,0.00,0.00,0.72,0.42,1.51,1.41,3.00,0.00,1.00,0.68
Ghaziabad,"2,290",28.6691565,77.4537578,0.00,0.00,2.19,0.00,0.00,0.00,0.94,0.77,0.92,0.78,0.25,0.00,0.54,0.68
Gautam Buddha Nagar,"2,146",28.358983,77.550762,0.00,0.00,1.14,0.00,0.00,0.00,0.73,0.53,1.13,0.77,0.81,0.00,0.83,0.63
Bulandshahar,"1,316",28.406963,77.8498292,0.00,11.52,11.12,0.00,0.00,0.00,1.17,0.56,0.95,0.77,1.00,0.00,0.00,0.69
Aligarh,"1,307",27.8973944,78.0880129,80.00,12.56,4.20,0.00,0.00,0.00,1.27,0.84,1.04,0.79,1.04,0.00,0.00,0.71
Hathras,"1,316",27.6056212,78.0537813,0.00,1.00,0.00,0.00,0.00,0.00,1.15,0.60,1.03,0.82,1.10,0.00,0.00,0.78
Mathura,"1,236",27.4924134,77.673673,1.00,4.94,0.50,0.00,0.00,0.00,0.76,0.67,0.57,0.48,0.53,0.00,0.00,0.59
Agra,"1,096",27.1766701,78.0080745,6.85,6.20,0.57,0.00,0.00,0.00,0.97,0.59,0.58,0.51,1.01,0.00,0.00,0.59
Firozabad,"1,109",27.1591006,78.3957574,2.00,6.36,0.00,0.00,0.00,0.00,1.14,0.78,0.79,0.61,1.21,0.00,0.53,0.69
Etah,"1,582",27.5587505,78.662567,0.00,19.60,1.81,0.00,0.00,0.00,1.27,0.57,0.87,0.78,1.10,0.00,0.00,0.77
Mainpuri,819,27.2284986,79.0249516,0.00,2.27,38.64,0.00,0.00,0.00,0.91,0.65,0.56,0.69,0.50,0.00,0.50,0.53
Budaun,994,28.0337088,79.1205419,0.00,16.07,4.35,0.00,0.00,0.00,1.30,0.95,1.42,1.60,1.65,0.00,0.50,0.70
Bareilly,"1,169",28.3670355,79.4304381,2.50,0.00,2.00,0.00,0.00,0.00,1.36,0.65,1.11,1.33,1.51,0.00,0.50,0.66
Pilibhit,991,28.6207939,79.8128649,0.50,0.00,0.00,0.00,0.00,0.00,1.29,0.90,1.53,1.01,1.30,0.00,0.50,0.56
Shahjahanpur,"1,003",27.883744,79.9122455,0.00,0.00,0.00,0.00,0.00,0.00,1.24,0.77,1.25,1.06,1.22,0.00,0.10,0.57
Kheri,896,28.16514,80.6326916,0.00,0.00,2.00,0.00,0.00,0.00,1.56,0.85,1.11,0.99,1.24,2.00,0.00,0.83
Sitapur,"1,031",27.5839037,80.666356,0.00,2.90,2.43,0.00,0.00,0.00,2.06,0.57,1.15,1.49,1.97,1.21,0.00,0.77
Hardoi,"1,054",27.3986345,80.1316927,2.50,0.00,2.03,0.00,0.00,0.00,2.02,0.75,1.22,1.37,1.81,5.00,1.00,0.88
Unnao,843,26.5393449,80.4878195,0.00,0.00,2.21,0.00,0.00,0.00,1.84,0.73,0.91,1.43,1.72,0.00,1.89,0.72
Lucknow,"1,350",26.8466937,80.946166,5.00,0.00,0.90,0.00,0.00,0.00,1.97,0.59,0.83,0.97,1.60,0.00,0.42,0.67
Rae Bareli,"1,018",26.2345298,81.2408689,2.18,2.31,0.00,0.10,0.32,0.00,2.46,0.83,0.87,0.81,2.04,2.00,0.25,0.43
Farrukhabad,"1,076",27.3826126,79.5940544,0.00,0.00,0.00,0.00,0.00,0.00,1.27,0.59,0.63,0.82,0.98,0.00,0.00,0.81
Kannauj,"1,124",27.0514156,79.9136731,0.00,0.00,0.00,0.00,0.00,0.00,1.76,0.71,0.78,0.93,0.50,0.00,0.00,1.11
Etawah,981,26.8117116,79.0046898,0.00,3.91,1.00,0.00,0.00,0.00,0.88,0.65,0.72,0.46,0.49,0.00,0.69,0.74
Auraiya,"1,258",26.4625957,79.5097549,0.00,3.31,3.00,1.00,0.00,0.00,1.07,0.84,0.72,0.43,0.86,0.00,0.75,0.72
Kanpur Dehat,"1,144",26.526707,79.8296743,0.00,5.27,1.03,0.00,0.00,0.00,2.48,1.04,0.62,0.70,0.50,0.00,0.21,0.62
Kanpur Nagar,"1,400",26.4148245,80.2321313,0.00,2.45,1.74,0.00,0.00,0.00,2.14,0.76,0.75,0.70,4.67,0.00,0.50,0.93
Jalaun,"1,274",26.1458649,79.3296565,0.00,0.00,0.00,0.00,0.00,0.00,2.66,1.34,1.35,1.45,1.93,0.00,0.00,0.72
Jhansi,"1,393",25.4484257,78.5684594,0.00,0.00,0.00,0.00,0.00,0.00,1.96,0.93,1.10,1.07,1.44,0.00,0.00,1.07
Lalitpur,"1,033",24.6878597,78.4120206,0.00,0.00,0.00,0.00,0.00,0.00,2.12,1.66,1.75,1.23,1.04,0.00,0.00,1.09
Hamirpur,"1,314",25.9548043,80.1526271,0.00,0.25,0.42,0.00,0.00,0.00,2.33,0.86,1.14,0.52,1.48,0.00,0.00,0.71
Mahoba,951,25.2920964,79.8724168,0.00,0.00,0.00,0.00,0.00,0.00,2.11,1.08,1.15,1.37,1.26,0.00,0.00,0.86
Banda,790,25.4796224,80.3380213,0.00,3.47,4.97,0.00,0.00,0.00,1.87,1.10,1.08,1.37,1.53,2.00,0.00,0.44
Chitrakoot,"1,038",25.1093692,81.0754657,1.00,3.89,5.00,0.00,0.40,0.00,1.82,0.60,0.89,0.60,1.79,0.00,0.56,0.29
Fatehpur,837,25.9200736,80.8099941,0.00,0.00,0.00,0.00,0.00,0.00,2.62,1.14,1.03,0.81,0.66,1.00,0.00,0.35
Pratapgarh,793,25.8973038,81.9452981,2.00,0.00,1.99,0.25,0.00,0.00,2.41,0.51,0.88,0.83,2.48,0.50,0.00,0.61
Kaushambi,812,25.361054,81.4031707,0.00,14.20,0.00,0.00,0.00,0.00,1.78,0.82,0.00,0.64,1.95,0.00,0.00,0.55
Allahabad,"1,069",25.4358011,81.846311,0.00,2.97,0.00,0.00,0.00,0.00,1.98,0.42,0.40,0.64,2.62,1.00,5.00,0.77
Barabanki,815,26.9400001,81.19,1.00,1.00,1.95,0.00,0.00,0.00,2.12,0.74,0.64,1.39,1.93,0.50,0.00,0.50
Faizabad,"1,027",26.7732476,82.1441643,0.00,0.00,0.50,0.25,0.00,0.00,1.69,0.39,0.35,0.88,4.87,0.25,0.00,0.75
Ambedkar Nagar,"1,106",26.4683952,82.6915429,0.00,0.00,3.51,0.00,0.00,0.00,2.35,1.67,0.23,1.56,4.80,0.00,0.00,0.83
Sultanpur,"1,146",26.2647757,82.0727061,0.00,0.00,6.50,0.00,0.00,0.00,3.16,0.53,1.21,1.24,3.88,1.00,0.00,0.67
Bahraich,867,27.5708377,81.5980246,0.00,0.00,0.00,0.00,0.00,0.00,2.00,1.03,1.21,1.34,1.99,3.00,0.00,0.62
Shrawasti,776,27.5977504,81.9534815,0.00,0.00,0.00,0.00,0.00,0.00,2.15,0.97,1.33,0.78,1.42,1.00,0.00,0.73
Balrampur,969,27.4297064,82.1768018,0.00,0.00,0.00,0.00,0.00,0.00,2.88,0.81,1.10,0.95,2.04,0.00,0.00,1.07
Gonda,947,27.1339913,81.9618968,0.00,0.00,1.25,0.00,0.00,0.00,2.53,0.72,0.90,1.10,1.96,0.00,0.00,0.66
Siddharthnagar,859,27.2715633,82.820974,0.00,0.00,0.00,0.00,0.00,0.00,1.45,0.00,0.91,1.00,3.46,0.00,0.00,0.69
Basti,725,26.8176796,82.7633133,0.00,0.00,0.00,0.00,0.00,0.00,1.59,0.50,0.85,1.31,3.99,0.00,0.00,0.73
Sant Kabir Nagar,"1,014",26.7671755,83.0361376,0.00,0.00,1.00,0.00,0.00,0.00,1.63,0.50,1.59,1.40,3.33,3.77,0.00,0.53
Mahrajganj,962,27.1446035,83.5621737,0.00,0.00,0.00,0.00,0.00,0.00,1.53,1.92,1.83,1.83,2.19,1.33,0.00,0.57
Gorakhpur,"1,015",26.7605545,83.3731675,0.00,0.00,0.52,0.00,0.00,0.00,2.86,0.28,0.94,1.59,2.97,1.00,0.00,0.50
Kushinagar,"1,010",26.7398787,83.8869698,0.00,0.00,0.00,0.00,2.50,0.00,2.34,0.49,1.69,0.50,2.11,1.27,0.00,0.78
Deoria,901,26.4862373,83.7838214,0.00,0.00,4.37,0.00,0.00,0.00,2.95,0.50,1.11,0.00,1.63,1.00,0.00,0.57
Azamgarh,873,26.0737044,83.1859458,0.00,0.25,2.28,0.30,0.00,0.00,2.10,0.35,1.96,3.00,3.42,0.00,0.50,0.62
Mau,959,25.9496379,83.5586445,0.00,0.00,5.01,5.00,0.00,0.00,2.15,0.00,0.63,1.00,2.96,4.00,0.00,0.68
Ballia,933,25.7584381,84.1487319,8.00,0.00,13.64,0.10,0.00,0.00,1.88,1.79,1.71,0.75,3.09,1.68,0.79,0.59
Jaunpur,966,25.7490034,82.6987002,0.00,0.00,6.71,0.00,0.00,0.00,2.54,0.46,0.40,1.14,3.08,4.00,0.00,0.83
Ghazipur,"1,029",25.5840419,83.5770202,0.00,2.83,0.00,0.00,0.00,0.00,2.64,0.85,1.84,0.55,3.78,6.00,0.00,0.74
Chandauli,"1,092",25.2604556,83.2662673,0.00,0.00,0.00,0.00,0.00,0.00,2.04,0.62,0.76,0.44,2.81,5.00,0.00,0.56
Varanasi,"1,210",25.3176452,82.9739144,2.46,1.00,0.00,0.00,0.00,0.00,2.96,0.74,1.43,0.81,2.62,1.71,0.39,0.64
Sant Ravidas Nagar,843,25.326373,82.4319405,0.00,7.65,1.00,0.00,0.00,0.00,2.75,1.40,1.51,0.89,2.53,0.25,0.00,0.72
Mirzapur,952,25.1336987,82.5644344,1.09,9.10,0.00,0.00,0.00,0.00,3.30,0.50,0.97,1.01,2.59,0.00,8.00,0.92
Sonbhadra,974,24.6850005,83.0683519,0.00,0.00,10.13,0.00,11.81,0.00,2.22,0.70,2.06,1.68,2.06,0.00,0.00,0.60
Kashiramnagar,"1,402",27.7879499,78.5677553,0.00,16.20,1.56,0.00,0.00,0.00,1.28,0.78,1.16,0.80,0.92,1.00,0.00,0.62
Pashchim Champaran,978,27.0504883,83.738743,0.00,0.00,5.01,0.00,0.00,0.00,0.98,1.47,1.49,0.00,0.50,0.69,0.32,0.47
Purba Champaran,929,26.6374385,84.3272922,0.00,3.16,2.39,1.97,0.00,0.00,0.97,0.88,1.31,0.50,0.52,0.98,0.99,0.68
Sheohar,750,26.5145872,85.2942313,0.00,0.00,2.70,0.00,5.00,0.00,1.23,1.48,1.80,1.00,1.00,1.38,0.69,0.62
Sitamarhi,684,26.5952476,85.4808393,0.00,0.78,1.04,0.00,0.00,0.00,0.91,0.87,1.54,1.23,1.34,0.93,0.50,0.26
Madhubani,976,26.3468544,86.0715474,0.00,0.50,1.44,4.00,0.00,0.00,1.74,0.97,1.23,1.28,0.15,1.11,0.42,0.29
Supaul,"1,091",26.1317087,86.6107106,0.00,0.00,1.53,0.50,0.00,0.00,0.64,2.24,1.71,1.24,2.00,0.50,0.51,0.21
Araria,995,26.1311375,87.445534,0.00,1.00,1.96,0.46,0.00,0.00,1.05,1.38,1.56,0.97,1.02,1.00,1.00,0.69
Kishanganj,976,26.0917422,87.9383822,0.00,0.00,2.09,0.00,0.00,0.00,0.91,0.92,1.41,0.96,1.00,1.00,0.00,0.47
Purnia,965,25.7771391,87.4752551,0.00,0.00,2.27,0.00,0.00,0.00,1.39,1.81,1.42,0.58,1.04,0.50,0.87,0.36
Katihar,946,25.552048,87.5718609,0.00,0.00,2.00,0.00,0.00,0.00,1.11,1.21,1.53,0.52,1.31,1.00,0.75,0.77
Madhepura,"1,307",25.9286903,86.7909759,0.00,0.00,1.33,0.50,0.00,0.00,1.19,1.78,1.71,1.03,0.50,0.50,0.50,0.29
Saharsa,"1,209",25.8834961,86.6006249,0.00,0.00,3.16,0.00,0.00,0.00,0.99,1.94,1.81,2.00,2.00,0.50,0.00,1.28
Darbhanga,889,26.111868,85.896004,0.00,0.00,1.94,0.00,0.00,0.00,1.36,0.97,1.70,1.12,0.00,1.00,0.47,0.30
Muzaffarpur,938,26.1208876,85.3647201,0.00,0.00,4.51,0.00,0.00,0.00,1.65,0.96,1.79,0.00,0.70,1.45,0.52,0.55
Gopalganj,888,26.4685472,84.4433318,0.00,0.00,3.11,0.00,0.00,0.00,1.03,1.52,1.46,1.00,1.06,1.96,0.39,0.53
Siwan,891,26.2196205,84.3566593,0.00,0.00,2.33,0.00,0.00,0.00,1.60,1.65,1.70,1.00,0.00,1.30,4.86,0.32
Saran,"1,007",26.0502233,84.6250199,0.00,2.85,2.49,0.00,0.00,0.00,1.90,1.11,1.70,0.00,1.83,0.82,0.00,0.71
Vaishali,"1,320",26.0038178,85.0817825,0.00,0.00,1.99,0.00,0.00,0.00,1.85,1.15,2.54,1.50,1.40,3.07,0.31,0.49
Samastipur,"1,051",25.8629679,85.7810263,0.00,0.00,3.63,0.00,0.00,0.00,1.52,0.93,1.46,1.14,0.30,0.00,0.53,0.28
Begusarai,"1,022",25.416675,86.1293792,0.00,0.00,3.67,0.00,0.00,0.00,1.68,0.69,1.39,1.00,0.25,0.00,0.38,0.30
Khagaria,"1,161",25.5111515,86.476908,0.00,0.00,2.48,0.00,0.00,0.00,1.59,1.18,1.57,0.00,1.33,0.00,0.24,0.33
Bhagalpur,857,25.2414303,86.9924358,0.00,0.00,10.47,0.00,0.00,0.00,1.92,1.02,1.97,3.84,2.15,1.62,0.99,0.79
Banka,929,24.8874179,86.919838,0.00,0.00,3.08,0.00,0.00,0.00,1.79,1.06,1.63,0.93,1.05,2.06,0.61,0.54
Munger,749,25.3747561,86.4735251,0.00,6.00,3.85,0.00,0.00,0.00,2.35,1.01,1.87,5.00,2.30,1.97,1.51,0.33
Lakhisarai,989,25.1673614,86.0988253,0.00,0.00,1.57,0.00,0.00,0.00,1.36,0.37,1.87,0.50,1.72,2.13,0.74,0.54
Sheikhpura,888,25.1416937,85.8628915,0.00,0.00,2.41,0.00,0.00,0.00,1.36,0.63,1.97,0.50,0.62,2.79,0.92,0.61
Nalanda,908,25.1240603,85.4594749,0.00,0.00,3.00,0.00,0.00,0.00,1.87,2.56,2.40,0.24,0.52,1.31,0.99,0.61
Patna,"1,061",25.5940947,85.1375645,0.00,4.92,4.08,0.00,0.00,0.00,1.86,0.97,2.23,0.99,0.87,1.79,0.83,0.53
Bhojpur,810,25.466155,84.5222189,0.00,10.00,4.78,0.00,0.00,0.00,1.62,1.96,2.00,2.00,1.00,2.12,0.71,0.64
Buxar,848,25.5647103,83.9777482,0.00,0.00,2.00,0.00,0.50,0.00,1.14,0.37,1.98,1.00,0.99,1.76,1.50,0.41
Kaimur (Bhabua),938,25.0426227,83.6055732,0.00,0.00,5.00,0.00,0.00,0.00,1.78,0.99,1.96,1.18,1.47,1.71,0.50,0.75
Rohtas,831,24.6287405,83.9201656,0.00,0.00,2.53,10.00,0.00,0.00,1.14,1.61,2.07,2.00,0.39,1.56,1.59,0.47
Jehanabad,"1,001",25.2139287,84.9895549,0.00,0.00,1.78,0.00,0.00,0.00,1.26,0.97,2.64,0.46,0.50,0.00,0.78,0.49
Aurangabad,888,24.7550083,84.3608373,0.00,0.00,3.00,0.00,0.00,0.00,1.35,0.50,2.25,0.91,0.88,1.09,0.50,0.51
Gaya,"1,025",24.7954523,84.999431,0.00,0.00,1.70,0.00,2.10,0.00,1.37,1.72,2.71,0.84,0.89,2.34,0.96,0.49
Nawada,"1,024",24.8910775,85.5354724,0.00,0.00,3.00,0.00,0.00,0.00,1.22,2.05,2.25,0.31,1.02,0.00,0.00,0.48
Jamui,785,24.9195147,86.224718,2.00,0.00,2.85,2.00,0.00,0.00,1.13,1.93,1.85,3.00,1.65,3.96,1.55,0.36
Arwal,886,25.2440189,84.6662199,0.00,0.00,3.00,0.00,0.00,20.00,1.42,2.53,2.83,0.47,1.48,1.33,0.50,0.67
North Sikkim,"1,622",27.8236356,88.556531,0.00,0.00,2.97,2.00,4.00,0.00,1.00,0.87,1.44,0.00,1.70,0.00,0.00,0.25
West Sikkim,"1,415",27.3600616,87.8956845,0.00,0.00,3.38,1.50,7.98,0.00,0.57,1.13,1.23,1.00,1.57,0.00,0.00,0.39
South Sikkim,"1,320",27.3079433,88.1322984,0.00,0.00,3.29,0.00,3.81,0.00,0.64,1.01,1.27,0.00,0.57,0.00,0.86,0.30
East Sikkim,"2,125",27.2836342,88.5389938,0.00,0.00,2.21,0.00,11.77,0.00,0.76,0.74,1.13,0.64,0.54,0.00,0.80,0.41
Tawang,"2,640",27.5780678,91.8757422,0.00,0.00,2.63,0.00,5.35,0.00,1.00,1.48,1.99,0.00,1.00,0.00,0.00,0.00
West Kameng,"2,511",27.3427633,92.302446,3.00,0.00,11.67,0.00,8.94,0.00,1.17,2.17,1.91,2.00,2.51,0.00,3.35,3.00
East  Kameng,"1,660",27.4231261,93.0175712,0.00,0.00,17.91,0.00,33.79,0.00,0.00,1.52,2.94,0.00,3.91,0.00,0.00,0.00
Papum Pare,"2,922",27.1719019,93.7029002,0.00,0.00,8.15,0.00,0.00,0.00,1.33,1.46,2.22,1.00,1.37,0.00,0.00,0.58
Lower Subansiri,"1,509",27.6169349,93.8391557,0.00,0.00,5.01,0.00,14.25,0.00,0.00,2.15,2.22,0.00,2.29,0.00,0.00,0.00
Upper Subansiri,"1,858",27.786802,94.3359635,0.00,0.00,8.98,0.00,16.69,0.00,3.50,1.43,2.19,2.00,2.57,0.00,1.00,1.00
West Siang,"1,020",28.147254,94.7484518,0.00,0.00,8.73,0.00,12.47,0.00,1.64,0.79,1.25,0.81,1.01,0.00,0.00,0.69
East Siang,"1,749",28.1097051,95.1432068,0.00,0.00,11.20,0.00,10.00,0.00,1.70,1.53,1.60,1.40,1.15,0.00,0.00,1.23
Upper Siang,"2,619",28.7588781,95.2266675,0.00,0.00,3.79,0.00,3.00,0.00,1.61,1.15,1.78,0.00,3.88,0.00,0.00,0.00
Dibang Valley,"1,470",28.8128767,96.1526985,0.00,0.00,0.00,0.00,0.00,0.00,0.00,1.54,2.00,0.00,0.00,0.00,0.00,0.00
Lohit,"1,008",27.9039651,96.1739116,0.00,0.00,0.00,0.00,0.00,0.00,1.58,1.22,2.39,1.25,2.00,0.00,1.00,0.45
Changlang,936,27.1305856,95.7342373,0.00,0.00,4.16,0.00,3.00,0.00,1.23,0.86,1.27,1.08,1.06,0.00,2.00,0.31
Tirap,812,26.9942703,95.5407299,5.00,0.00,3.24,0.00,4.85,20.00,1.34,1.95,1.06,2.00,0.81,0.00,0.00,0.31
Anjaw,880,27.2568757,95.9359378,0.00,0.00,5.00,0.00,0.00,0.00,0.00,0.00,2.61,0.00,2.00,0.00,0.00,0.00
Kurungkumey,"1,024",27.8989678,93.3514863,0.00,0.00,8.83,0.00,19.86,0.00,0.00,1.05,1.79,0.00,0.00,0.00,0.00,0.00
Lower Dibang Valley,"1,543",28.1428728,95.8431018,0.00,2.00,6.64,0.00,12.00,0.00,1.98,1.18,1.43,1.19,1.00,0.00,0.00,0.53
Mon,"1,781",26.722574,95.0312498,0.00,0.00,7.27,0.00,0.00,0.00,0.00,1.13,1.26,0.00,0.50,0.00,0.00,0.00
Tuensang,"1,738",26.2357422,94.8131863,0.00,0.00,5.16,0.00,0.00,0.00,0.50,1.34,1.62,1.00,0.00,0.00,0.00,0.00
Mokokchung,"1,586",26.3220358,94.5134629,0.00,0.00,0.00,0.00,0.00,0.00,1.35,1.10,1.48,0.00,1.00,0.00,0.00,0.00
Zunheboto,"1,619",26.0092831,94.5237707,0.00,0.00,3.87,0.00,0.50,0.00,0.50,1.14,1.13,0.00,0.92,0.00,0.00,0.00
Wokha,"1,654",26.0910351,94.2589738,0.00,0.00,2.54,0.00,0.00,0.00,0.00,1.03,1.19,0.50,0.70,0.00,0.00,0.00
Dimapur,"2,226",25.8629885,93.7536663,0.00,0.00,7.85,0.00,0.00,0.00,0.00,1.25,1.93,0.00,0.86,0.00,0.00,2.00
Kohima,"2,278",25.6585963,94.1053307,0.00,0.00,10.74,0.00,0.00,0.00,0.94,1.26,1.32,1.24,0.58,0.00,0.00,0.00
Phek,"1,647",25.6994918,94.46123,0.00,0.00,2.04,0.00,0.00,0.00,1.28,0.84,1.04,0.00,0.65,0.00,0.00,0.00
Kiphire,"1,704",25.8689085,94.7853412,0.00,0.00,20.00,0.00,0.00,0.00,0.00,1.35,0.91,0.00,1.00,0.00,0.00,0.00
Longleng,"1,893",26.4901992,94.819664,0.00,0.00,8.41,0.00,5.00,0.00,1.04,0.90,1.19,0.00,0.50,0.00,0.50,0.00
Peren,"1,416",25.5124772,93.7390658,0.00,0.00,2.31,0.00,0.00,0.00,0.50,1.42,1.21,0.00,0.80,0.00,1.00,0.00
Senapati,925,25.2677276,94.0210189,0.00,0.00,0.00,0.00,0.00,0.00,2.00,1.00,0.93,0.52,1.26,1.00,0.00,0.49
Tamenglong,"1,397",24.9879342,93.495292,0.00,0.00,0.00,0.00,0.00,0.00,0.95,1.43,1.19,1.18,1.84,1.17,1.50,1.00
Churachandpur,"1,324",24.3427485,93.6978264,0.00,0.00,1.50,0.00,0.00,0.00,0.48,1.56,1.60,0.46,1.14,0.94,0.72,0.39
Bishnupur,"1,133",24.6303603,93.7598288,0.00,0.00,0.00,0.00,0.00,0.00,0.86,0.71,0.77,0.70,0.90,0.67,0.99,0.73
Thoubal,"1,394",24.6449243,93.99929,0.00,0.00,0.00,0.00,0.00,0.00,0.48,0.50,0.63,0.45,0.88,1.09,0.92,0.63
Imphal West,"1,406",24.7827837,93.8858955,0.00,0.00,1.24,0.00,90.00,0.00,0.46,0.51,0.53,0.66,0.71,0.88,0.57,0.50
Imphal East,"1,349",24.7806536,93.9674371,0.00,0.00,2.00,2.00,0.00,0.00,0.50,0.34,0.71,0.57,0.83,0.66,0.38,0.34
Ukhrul,"1,154",25.0953858,94.3616516,0.00,0.00,0.00,0.00,0.00,0.00,0.83,1.03,0.73,1.00,2.18,3.00,0.00,1.00
Chandel,958,24.3262003,94.0006003,0.00,0.00,0.00,0.00,0.00,0.00,1.00,0.77,0.96,1.23,1.89,1.00,0.00,0.00
Mamit,"1,404",23.9294441,92.4905707,0.00,0.00,8.61,0.00,0.00,0.00,0.00,0.00,2.77,0.00,0.50,0.00,1.61,1.35
Kolasib,"1,803",24.224565,92.6760251,0.00,0.00,3.35,0.00,0.00,0.00,0.00,2.85,2.45,2.00,0.00,0.00,4.00,0.00
Aizawl,"2,277",23.727107,92.7176389,0.00,3.00,3.37,0.00,0.00,0.00,0.00,2.30,2.47,2.74,0.96,5.00,1.73,1.37
Champhai,"1,563",23.4565708,93.3281929,0.00,0.00,0.00,0.00,0.00,0.00,0.00,0.00,2.37,0.00,1.48,0.00,2.00,0.00
Serchhip,"1,351",23.3416578,92.8502302,0.00,0.00,5.96,0.00,0.00,0.00,0.00,0.00,2.26,0.00,1.00,0.00,2.00,0.00
Lunglei,"1,514",22.8670691,92.7655358,0.00,0.00,6.75,0.00,0.00,0.00,0.00,3.06,2.42,3.42,3.76,0.00,0.00,0.50
Lawngtlai,"1,132",22.5284445,92.8926342,0.00,0.00,0.00,0.00,0.00,0.00,0.00,4.09,2.11,0.00,0.25,0.00,0.00,0.00
Saiha,"1,119",22.489734,92.979269,0.00,0.00,0.00,0.00,0.00,0.00,0.00,3.00,2.24,1.00,1.70,0.00,0.00,0.00
West Tripura,"1,080",23.899682,91.4048249,0.00,0.00,2.56,0.00,0.00,0.00,0.55,0.56,1.29,1.01,0.86,0.52,0.33,0.51
South Tripura,"1,125",23.2317493,91.5596117,0.00,0.00,0.00,0.00,0.00,0.00,0.54,0.77,1.54,1.34,0.00,0.66,0.00,0.00
Dhalai,"1,690",23.8466982,91.9099238,0.00,0.00,0.00,0.00,0.00,0.00,0.75,0.97,1.95,1.00,1.34,0.96,0.00,0.26
North Tripura,"1,195",24.0797139,92.2630393,0.00,0.00,0.00,0.00,0.00,0.00,0.50,1.04,1.64,0.78,0.64,0.63,1.00,0.05
West Garo Hills,"1,258",25.5679372,90.2244662,0.00,0.00,3.24,0.00,2.13,0.00,0.76,1.03,2.13,0.65,0.68,0.84,0.66,0.41
East Garo Hills,"1,433",25.5671692,90.5257823,0.00,0.00,2.81,0.00,2.00,0.00,1.00,0.83,2.12,6.00,0.81,0.88,3.46,0.43
South Garo Hills,"1,389",25.3300969,90.563609,0.00,0.00,1.52,0.00,0.00,0.00,0.95,1.14,2.02,0.00,0.69,1.11,0.00,0.52
West Khasi Hills,"1,103",25.5624625,91.2891036,0.00,0.00,3.34,0.00,0.00,0.00,1.00,0.76,1.30,1.50,0.00,0.00,0.00,0.35
Ri Bhoi,"1,381",25.8431574,91.985621,0.00,0.00,10.00,0.00,0.00,0.00,1.00,0.64,1.07,0.00,0.50,0.00,0.80,0.29
East Khasi Hills,"1,802",25.3681768,91.7538817,0.00,0.00,1.41,0.00,0.00,0.00,1.26,1.28,1.32,0.96,1.42,0.00,0.80,0.59
Jaintia Hills,"1,196",25.5021272,92.341887,0.00,0.00,3.22,0.00,0.00,0.00,0.50,0.60,0.76,0.50,0.00,0.00,0.00,0.75
Kokrajhar,965,26.4014362,90.266699,0.00,0.00,0.00,0.00,0.00,0.00,0.70,0.96,1.82,0.88,0.86,0.57,0.00,0.50
Dhubri,886,26.0206982,89.9743463,0.00,0.00,0.00,0.00,0.00,0.00,0.77,1.64,2.00,1.72,0.67,1.04,0.00,0.40
Goalpara,"1,240",26.1641342,90.6251541,0.00,0.00,0.00,0.00,0.00,0.00,0.66,1.48,2.04,0.77,0.35,0.00,0.00,0.42
Bongaigaon,"1,204",26.5009992,90.5352356,0.00,0.00,0.00,0.00,0.00,0.00,0.57,0.80,1.88,0.77,0.25,0.96,0.00,0.33
Barpeta,946,26.3304209,91.0040547,0.00,0.00,0.00,0.00,0.00,0.00,0.81,1.68,2.34,0.92,1.00,0.77,0.37,0.37
Kamrup,"1,034",26.3160819,91.5983959,0.00,0.00,0.00,0.00,0.00,0.00,0.60,1.84,2.40,0.95,0.00,0.92,0.00,0.49
Nalbari,"1,211",26.4446185,91.4410527,0.00,0.00,0.00,0.00,0.00,0.00,0.84,0.98,1.87,0.78,1.84,0.58,0.00,0.28
Darrang,"1,204",26.4522876,92.027319,0.00,0.00,0.00,0.50,0.00,0.00,0.66,0.63,1.73,0.99,0.46,1.11,0.00,0.41
Marigaon,976,26.2528853,92.336955,0.00,0.00,0.00,0.00,0.00,0.00,0.83,0.54,1.44,0.84,0.80,0.50,0.00,0.34
Nagaon,"1,001",26.3463713,92.6840426,0.00,0.00,1.00,0.00,0.00,0.00,0.66,0.71,1.59,1.55,0.85,1.13,0.90,0.28
Sonitpur,"1,043",26.6738851,92.8577105,0.00,0.00,3.00,0.00,0.00,0.00,0.76,0.87,2.17,0.71,0.61,0.89,0.00,0.27
Lakhimpur,973,27.2063587,94.1513764,0.00,0.00,0.00,0.00,0.00,0.00,0.59,0.69,1.85,1.04,0.51,0.59,0.25,0.37
Dhemaji,"1,006",27.4811106,94.5572847,0.00,0.00,0.00,0.89,0.00,0.00,0.73,0.88,1.66,0.77,0.54,0.51,0.00,0.20
Tinsukia,"1,100",27.4921909,95.346775,0.00,0.00,0.00,0.00,0.00,0.00,0.82,1.34,1.99,1.72,1.43,0.00,0.00,0.46
Dibrugarh,"1,055",27.4728327,94.9119621,0.00,0.00,0.00,0.00,0.00,0.00,1.13,1.66,1.90,2.01,1.23,0.00,0.00,0.54
Sibsagar,"1,114",26.9826098,94.6424521,0.00,0.00,0.00,0.00,0.00,0.00,0.85,0.69,1.76,0.93,0.89,0.00,1.78,0.39
Jorhat,"1,108",26.7465203,94.2025859,0.00,0.00,0.00,0.00,0.00,0.00,0.97,1.05,1.51,1.38,0.99,1.48,0.00,0.33
Golaghat,998,26.5238515,93.962337,0.00,0.00,0.00,0.00,0.00,0.00,0.76,0.53,1.61,0.92,0.86,0.97,0.54,0.31
Karbi Anglong,884,26.186085,93.5812692,0.00,0.00,0.29,0.00,0.00,0.00,1.39,0.87,1.67,1.30,0.88,0.00,1.00,0.00
North Cachar Hills,943,25.3478004,93.0175712,0.00,0.00,0.25,0.00,0.00,0.00,0.00,1.27,1.83,0.50,0.65,0.50,0.00,0.00
Cachar,917,24.7821253,92.8577105,0.00,0.00,0.00,0.00,0.00,0.00,0.98,0.68,1.55,0.60,0.83,0.50,0.00,0.00
Karimganj,880,24.8649128,92.3591531,0.00,0.00,0.00,0.00,0.00,0.00,1.00,0.74,1.87,1.79,0.00,0.00,0.00,0.10
Hailakandi,810,24.6811018,92.5638055,0.00,0.00,0.00,0.00,0.00,0.00,0.94,0.85,1.86,2.00,0.50,0.00,0.00,0.23
Chirag,"1,166",26.5386619,90.6939122,0.00,0.00,0.00,0.00,0.00,0.00,0.94,0.85,2.35,1.21,0.00,0.96,0.20,0.25
Baksa,825,26.6621472,91.3577749,0.00,0.00,0.00,0.00,0.00,0.00,0.38,1.02,2.00,0.82,1.00,0.79,0.00,0.25
Guwahati,"1,952",26.1445169,91.7362365,0.00,0.00,0.00,0.00,0.00,0.00,0.73,1.17,1.83,0.78,0.77,1.00,0.00,0.88
Udalguri,"1,094",26.7460177,92.0959429,0.00,0.00,0.00,0.00,0.00,0.00,0.52,0.86,1.92,0.71,0.39,0.53,0.00,0.28
Darjiling,"1,618",27.0360066,88.2626751,0.00,0.00,1.57,1.00,0.00,0.00,0.51,0.59,1.17,1.01,0.46,0.00,0.00,0.30
Jalpaiguri,"1,068",26.5434772,88.7205256,0.00,0.00,1.73,0.75,0.00,0.00,0.68,0.62,1.30,0.96,0.77,0.84,0.00,0.29
Koch,973,26.3356861,89.445851,0.00,0.00,0.50,0.00,0.00,0.00,0.00,0.65,1.19,0.74,0.68,0.67,0.00,0.35
Uttar Dinajpur,"1,023",25.9810393,88.050979,0.00,0.00,0.62,0.00,0.00,0.00,0.87,0.69,1.34,0.64,0.97,0.79,1.00,0.44
Dakshin Dinajpur,"1,060",25.3715308,88.556531,0.00,0.00,0.00,0.80,0.00,0.00,1.01,0.45,0.93,0.56,0.67,0.61,1.00,0.24
Maldah,987,25.1785773,88.2461183,0.25,0.00,0.00,0.00,0.00,0.00,1.95,0.59,0.98,0.80,1.30,1.06,0.50,0.25
Murshidabad,999,24.1759039,88.2801785,0.00,0.00,4.00,0.30,0.00,0.00,0.31,0.47,1.33,0.48,0.73,1.05,0.28,0.38
Birbhum,"1,070",24.3575023,87.8426967,0.00,0.00,1.90,0.00,0.00,0.00,0.53,0.54,1.28,0.54,0.75,1.10,0.46,0.30
Barddhaman,"1,200",23.2324214,87.8614793,0.00,0.00,0.20,0.00,0.00,0.00,1.08,0.53,1.22,0.57,0.35,0.32,1.07,0.49
Nadia,"1,062",22.7059105,88.7530076,0.00,0.00,0.00,0.30,0.00,0.00,0.83,0.40,1.26,0.33,0.37,0.44,0.39,0.21
North Twenty Four Parganas,"1,694",22.6168099,88.402895,0.00,0.00,0.53,0.00,0.00,0.00,0.80,0.76,1.54,0.46,0.46,0.66,0.60,0.26
Hugli,"1,110",21.759098,87.7634179,0.00,0.00,0.00,0.00,0.00,0.00,0.96,0.45,1.11,0.41,0.38,0.29,0.38,0.20
Bankura,"1,051",23.2324146,87.0786044,0.00,0.00,5.00,0.00,0.00,0.00,0.75,0.69,1.17,0.82,0.46,0.41,0.50,0.37
Puruliya,907,23.3320779,86.365208,0.00,0.00,3.95,0.00,0.00,0.00,1.08,0.62,1.05,0.57,0.60,0.28,0.47,0.25
Pashim,"1,063",22.4080376,87.3810727,0.00,0.00,0.00,0.00,0.00,0.00,1.75,1.01,1.57,0.89,0.82,1.55,0.00,0.56
Howrah,"1,573",22.5957689,88.2636394,0.00,0.50,0.00,0.50,0.00,0.00,1.04,0.76,1.72,0.55,0.58,1.32,0.46,0.52
Kolkata,"2,764",22.572646,88.363895,0.00,0.00,1.91,0.00,0.00,6.00,0.82,0.70,1.15,0.42,0.56,0.75,0.37,0.33
South Twenty Four Parganas,"1,274",22.1352378,88.4016041,0.50,0.00,0.46,0.50,0.00,0.00,0.93,0.85,1.62,0.60,0.47,1.94,0.36,0.26
Purba Midanapur,"1,085",21.9372879,87.7763333,0.00,0.00,0.00,0.00,0.00,0.00,1.84,0.81,1.24,0.24,0.83,1.03,1.22,0.45
Garhwa,"1,032",24.1548982,83.7995617,5.00,0.00,5.50,0.00,0.00,0.00,1.64,1.10,1.30,1.45,1.00,1.00,1.03,0.61
Palamu,914,24.1286106,84.1857115,0.00,2.00,8.32,0.00,0.00,0.00,2.07,0.84,1.57,0.64,3.00,1.01,1.20,0.86
Chatra,824,24.2065083,84.8724284,0.00,0.00,2.65,0.00,0.00,0.00,1.56,0.76,1.31,0.89,0.20,1.27,1.22,0.51
Hazaribagh,"1,014",23.9966213,85.3691068,0.00,0.00,2.00,0.00,0.00,0.00,1.85,1.11,1.55,1.04,0.50,0.65,0.62,0.41
Kodarma,993,24.4676805,85.5933645,0.00,0.00,0.00,0.00,0.00,0.00,1.21,0.73,1.23,0.85,1.00,0.00,0.52,0.65
Giridih,949,24.1821391,86.2869507,0.00,0.00,4.38,0.00,0.00,0.00,1.24,0.66,0.90,0.71,0.52,0.94,0.43,0.55
Deoghar,"1,055",24.4763201,86.6913222,0.00,0.00,5.34,0.00,0.00,0.00,1.47,1.29,1.51,0.25,0.00,0.00,1.27,0.48
Godda,868,24.8255215,87.2135177,0.00,0.00,3.53,0.00,0.00,0.00,1.36,0.69,0.96,2.00,0.60,1.00,1.14,0.46
Sahibganj,772,25.2381216,87.6453592,0.00,0.00,2.05,0.00,0.00,0.00,0.77,1.00,1.02,0.00,0.00,0.00,0.29,0.34
Pakaur,699,24.6336908,87.8500644,0.00,0.00,4.57,0.00,0.00,0.00,0.96,1.14,1.74,0.00,0.92,1.00,0.50,0.34
Dumka,802,24.2854664,87.2419299,0.00,0.00,4.72,0.00,0.00,0.00,1.20,1.56,1.28,0.00,0.62,0.00,0.95,0.59
Dhanbad,"1,223",23.7956531,86.4303859,0.00,0.00,0.00,0.00,0.00,0.00,1.50,0.61,1.09,0.54,0.45,0.00,0.52,0.37
Bokaro,942,23.6692956,86.151112,0.00,0.00,4.69,0.00,0.00,0.00,1.53,0.76,1.07,0.76,0.51,0.00,0.55,0.45
Ranchi,"1,266",23.3440997,85.309562,0.00,0.00,3.48,0.00,0.00,0.00,1.42,0.73,1.40,1.60,1.00,0.00,0.81,0.59
Lohardaga,958,23.4409325,84.6845216,0.00,0.00,3.48,0.00,0.00,0.00,1.65,1.23,1.32,2.37,3.00,0.00,0.40,0.67
Gumla,916,23.0441295,84.5379455,0.00,0.00,5.22,0.00,0.00,0.00,1.71,1.41,0.90,1.48,0.00,0.50,0.00,1.50
Pashchimi Singhbum,796,22.3650858,85.4375574,0.00,0.00,0.00,0.00,0.00,0.00,1.22,0.76,1.65,0.56,0.55,1.07,0.50,0.69
Purbi Singhbum,"1,228",22.4866756,86.4996546,0.00,0.00,0.67,0.25,0.00,0.00,1.43,1.07,1.72,0.62,0.81,0.00,0.65,0.57
Latehar,"1,028",23.7463215,84.5091102,10.00,0.00,8.66,0.00,0.00,0.00,1.72,1.00,1.41,1.07,4.70,1.48,0.00,0.73
Simdega,920,22.6151138,84.4959985,0.00,8.00,2.50,0.00,0.00,0.00,1.52,1.00,1.49,2.17,1.00,0.50,1.02,0.56
Jamtara,862,23.9505496,86.8170132,0.00,0.00,4.02,0.00,0.00,0.00,1.15,0.65,1.32,1.93,0.75,0.00,0.49,0.51
Seraikela-kharsawan,884,22.7023346,85.9278993,0.00,0.00,0.00,0.00,0.00,0.00,1.35,0.94,1.26,1.06,0.54,0.00,0.95,0.61
Bargarh,790,21.3425839,83.624201,0.00,0.00,1.50,2.00,0.00,0.00,1.29,1.48,0.72,0.63,0.38,0.50,0.74,0.44
Jharsuguda,"1,009",21.8554375,84.0061661,0.00,0.00,3.00,0.00,0.00,0.00,1.80,1.75,1.20,0.99,0.64,1.00,0.00,0.62
Sambalpur,"1,122",21.4668716,83.9811665,0.00,0.00,0.00,0.00,0.00,0.20,1.58,1.21,0.89,0.66,0.68,0.00,1.00,0.66
Debagarh,676,21.5383136,84.7289442,0.00,0.00,0.00,0.00,0.00,0.00,1.01,1.03,1.12,0.49,0.49,0.58,0.50,0.52
Sundargarh,923,22.1240025,84.043175,0.00,0.00,0.00,0.00,0.00,0.00,1.56,0.90,0.80,1.04,0.49,1.09,1.00,1.03
Kendujhar,748,21.628933,85.5816847,0.00,0.00,0.00,1.50,0.00,0.00,1.17,0.86,0.81,0.72,0.63,0.00,0.00,0.68
Mayurbhanj,653,22.0086978,86.4187308,0.00,0.00,1.83,0.00,0.00,0.00,1.35,1.00,0.75,1.04,0.69,0.00,1.00,0.65
Baleshwar,"1,016",21.4869337,86.9246005,0.00,0.00,2.50,0.00,0.00,0.00,0.95,1.20,0.74,0.72,0.63,0.50,0.30,0.65
Bhadrak,870,21.0582737,86.4958396,0.50,0.00,0.00,0.00,0.00,0.00,1.57,1.11,0.99,1.15,0.77,0.50,0.25,0.49
Kendrapara,976,20.4969108,86.4288534,1.00,0.00,0.00,0.00,0.00,0.00,1.27,2.04,0.99,0.77,0.41,0.00,0.00,0.47
Jagatsinghapur,917,20.1975828,86.3376761,0.00,0.00,0.00,0.00,0.00,0.00,1.52,1.78,1.12,1.02,0.48,0.00,0.00,0.36
Cuttack,"1,049",20.462521,85.8829895,0.50,0.00,0.00,0.00,0.00,0.00,1.40,1.49,0.89,0.88,0.55,0.00,0.50,0.54
Jajapur,"1,029",20.8341019,86.3326058,0.00,0.00,0.00,0.00,0.00,0.00,1.45,1.47,1.05,0.77,0.72,0.00,0.50,0.39
Dhenkanal,"1,047",20.6503455,85.5972218,0.00,0.00,0.00,0.00,0.00,0.00,1.37,1.21,1.31,1.20,0.82,2.00,0.00,0.50
Anugul,"1,297",20.8444033,85.1510818,0.00,0.00,0.00,0.00,0.00,0.00,1.20,1.11,1.34,0.68,0.42,0.25,0.00,0.36
Nayagarh,985,20.1231332,85.1038426,0.00,0.00,0.00,0.00,0.00,1.30,1.08,1.85,0.44,0.94,0.47,0.00,0.38,0.45
Khordha,"1,284",20.1934552,85.6332093,0.00,0.00,0.50,0.00,0.00,0.00,1.59,1.42,0.67,0.64,0.86,0.00,0.00,0.53
Puri,951,19.8133822,85.8314655,0.00,0.00,0.00,0.00,0.00,0.00,1.45,1.22,0.76,0.88,0.53,0.50,0.25,0.44
Ganjam,"1,009",19.387389,85.0515413,0.00,0.00,0.00,0.00,0.00,3.04,1.72,1.36,0.87,0.84,0.79,0.00,0.00,0.38
Gajapati,733,19.1912221,84.1857115,5.00,9.50,9.65,0.00,0.00,5.45,1.60,0.61,1.50,0.57,0.50,0.25,0.00,0.34
Kandhamal,702,20.4797108,84.2331485,0.00,0.00,3.86,0.00,0.00,3.73,2.11,1.10,0.50,1.05,0.64,0.00,0.00,0.49
Baudh,612,20.828446,84.3271305,0.00,0.00,0.00,0.00,0.00,6.22,1.23,1.42,1.95,0.77,0.78,0.53,0.50,0.78
Sonapur,809,20.8480141,83.8950042,0.00,0.00,0.00,0.00,0.00,0.00,1.41,0.86,0.67,0.75,0.63,0.00,0.75,0.51
Balangir,839,20.7074234,83.4842725,0.00,0.00,0.00,0.00,0.00,0.00,1.08,0.92,0.82,0.89,0.32,2.00,0.50,0.53
Nuapada,653,20.8060184,82.5361393,0.00,0.00,1.34,0.00,0.00,1.40,1.83,1.27,1.07,1.38,1.07,0.00,0.00,0.85
Kalahandi,654,19.9137363,83.1649001,0.00,0.00,1.00,0.00,0.00,0.00,1.36,1.33,1.36,1.31,0.77,2.95,0.00,0.54
Rayagada,807,19.171209,83.4163226,0.00,0.00,0.10,0.00,6.00,0.00,1.20,1.10,0.66,1.45,0.00,0.00,0.00,0.50
Nabarangapur,751,19.2281434,82.5469898,0.00,0.00,1.71,2.00,0.00,0.00,1.47,0.94,1.40,0.35,0.52,2.39,4.00,0.48
Koraput,698,18.813487,82.7123327,0.00,0.00,0.00,0.00,2.81,2.06,1.54,1.56,0.80,2.41,0.00,1.41,0.00,0.25
Malkangiri,607,18.3435863,81.8825279,0.00,0.00,1.50,0.00,0.00,0.00,1.59,1.08,1.67,0.50,2.00,2.00,0.00,0.56
Koriya,816,23.3875499,82.3885783,0.00,0.00,1.09,0.25,0.00,0.00,1.17,0.46,1.12,0.51,0.31,0.87,0.23,0.28
Surguja,868,22.9494079,83.1649001,0.50,0.00,2.02,0.10,2.15,0.43,1.39,0.42,1.26,1.08,0.46,1.02,0.67,0.42
Jashpur,"1,011",22.8874202,84.1382368,1.43,0.00,2.11,0.00,1.99,0.50,1.40,1.47,1.60,2.04,0.66,1.08,0.25,0.63
Raigarh,853,21.8950693,83.3600566,0.00,0.00,0.00,0.00,0.00,0.00,2.15,1.65,0.52,1.08,1.00,2.61,0.50,0.58
Korba,878,22.3594501,82.7500595,0.00,0.00,1.00,0.00,0.00,0.00,2.45,0.89,1.41,1.07,0.00,2.89,1.00,1.01
Janjgir,869,21.9705529,82.4752757,0.00,0.00,0.00,0.00,0.00,0.00,2.29,1.14,1.13,0.80,0.00,3.46,0.00,0.81
Bilaspur,989,22.0631449,82.0685546,0.00,0.00,0.00,0.00,0.00,0.00,2.53,1.51,1.03,0.98,1.12,2.60,0.00,0.77
Kawardha,812,22.0089506,81.2243444,0.00,0.00,0.00,0.00,0.00,0.00,3.73,2.00,1.69,0.40,0.38,1.65,0.00,0.73
Rajnandgaon,829,21.0971034,81.0302222,0.00,0.00,0.00,0.00,0.00,0.00,3.60,0.41,1.50,0.66,0.40,1.81,0.00,0.94
Durg,956,21.1904494,81.2849169,0.00,0.00,0.00,0.00,0.00,0.00,3.61,0.37,0.91,1.43,0.40,2.90,0.25,0.55
Raipur,839,21.2513844,81.6296413,0.00,0.00,0.00,0.00,0.00,0.00,2.83,0.83,0.80,1.21,0.45,1.80,0.73,0.87
Mahasamund,"1,012",21.1091317,82.0979023,0.00,0.00,5.02,0.00,0.00,0.00,2.10,2.03,1.76,1.68,0.00,1.72,0.50,0.86
Dhamtari,850,20.7014999,81.5541579,0.00,0.00,0.00,0.00,0.00,0.00,2.29,0.54,1.27,1.61,1.26,1.73,0.00,0.79
Kanker,823,20.2727132,81.4883097,0.00,0.00,9.00,0.00,8.81,0.00,1.99,1.53,0.98,1.22,0.25,1.33,1.78,0.74
Bastar,729,19.2036769,81.9343855,3.00,0.00,4.45,0.00,5.54,0.00,1.70,0.96,1.82,1.44,0.94,1.67,0.00,0.62
Dantewada*,"1,113",18.896863,81.3454417,0.00,0.00,9.14,0.00,5.03,0.00,3.29,1.03,1.87,1.53,1.12,1.33,0.00,0.94
Narayanpur,500,21.8291789,81.8853303,0.00,0.00,3.51,0.00,5.24,1.50,1.61,1.37,1.43,1.62,1.68,0.84,0.10,0.50
Bijapur,"1,616",18.7760051,80.3148378,0.00,0.00,0.00,0.00,10.00,0.00,1.49,0.42,0.58,1.04,0.00,2.06,0.00,0.51
Sheopur,988,25.67282,76.6961305,1.94,15.92,0.00,0.00,0.00,0.00,1.01,0.58,0.70,0.63,0.00,0.00,0.00,0.57
Morena,922,26.4933562,77.9909949,0.00,3.82,0.00,0.00,0.00,0.00,1.29,0.69,0.72,0.87,0.79,0.00,0.00,0.78
Bhind,883,26.5587354,78.7872876,5.00,7.36,0.00,0.00,0.00,0.00,1.42,0.76,0.73,0.78,0.50,0.00,0.00,0.68
Gwalior,"1,616",26.2182871,78.1828308,0.00,7.27,0.25,0.00,0.00,0.00,1.14,0.52,0.50,0.45,0.58,0.00,0.00,0.66
Datia,"1,026",25.6653262,78.4609393,0.00,3.00,0.00,0.00,0.00,0.00,1.33,0.70,0.87,0.97,0.64,0.00,0.00,0.77
Shivpuri,"1,064",25.4357869,77.665066,5.00,0.00,7.50,0.00,4.00,0.00,1.02,0.77,0.75,1.50,0.91,0.00,0.00,0.77
Guna,"1,088",24.6348197,77.2979782,0.00,0.00,3.30,1.00,1.00,0.00,1.06,0.82,0.78,0.98,0.50,0.00,1.00,0.74
Tikamgarh,"1,205",24.7456147,78.8320779,0.00,0.00,0.00,0.00,0.00,0.00,0.92,0.94,1.42,1.56,1.00,0.00,0.00,0.88
Chhatarpur,"1,481",24.9163562,79.5811827,0.00,1.00,0.00,0.00,0.00,0.00,1.18,1.35,0.96,1.63,0.77,0.00,1.50,0.93
Panna,895,24.7180311,80.1819268,0.00,0.00,0.00,0.00,0.00,0.00,2.36,1.17,0.46,0.69,0.75,2.06,0.00,0.69
Sagar,"1,132",23.838805,78.7378068,0.25,0.00,0.25,0.00,0.00,0.00,2.05,1.08,1.68,1.08,1.69,2.00,0.97,0.82
Damoh,"1,228",23.8380986,79.4421731,0.00,0.00,0.00,0.00,0.00,0.00,2.69,1.13,1.18,0.94,0.00,0.00,0.50,1.04
Satna,729,24.6005075,80.8322428,0.00,0.00,0.00,0.00,0.00,0.00,2.10,0.57,0.53,0.50,1.35,2.57,0.98,0.62
Rewa,840,24.5372927,81.30418,0.00,1.00,0.00,0.00,0.00,0.00,2.44,1.44,1.09,0.88,1.20,1.61,0.00,0.88
Umaria,743,23.5309797,80.8294747,0.00,0.00,0.00,0.00,0.00,0.00,2.31,0.61,1.07,1.33,0.00,1.01,0.00,0.36
Shahdol,697,23.3021885,81.3568021,0.00,0.00,0.00,0.00,0.00,0.00,2.96,0.82,1.76,1.04,2.00,2.00,0.00,0.48
Sidhi,842,24.3956038,81.8825279,0.00,0.00,3.00,0.00,0.00,0.00,3.16,0.50,1.81,1.07,1.00,0.00,0.00,0.86
Neemuch,979,24.4763852,74.8624092,0.00,0.00,8.53,0.00,0.00,0.00,0.88,0.50,0.70,0.87,0.20,0.00,0.00,0.54
Mandsaur,"1,304",24.076836,75.0692952,0.00,0.00,13.13,0.00,0.00,0.00,1.02,0.68,0.78,0.84,0.32,0.00,0.00,0.64
Ratlam,"1,121",23.3341696,75.0376325,0.00,0.00,21.77,0.00,0.00,0.00,1.10,0.82,0.80,1.14,0.88,0.00,0.00,0.82
Ujjain,"1,333",23.1793013,75.7849097,0.00,0.00,5.47,0.00,0.65,0.00,1.37,0.68,0.43,0.68,0.00,0.00,2.00,0.58
Shajapur,"1,175",23.4272938,76.2729839,13.04,2.00,20.92,0.00,0.00,0.00,1.32,0.83,0.92,1.12,0.50,0.00,0.25,0.73
Dewas,"2,039",22.9622672,76.0507949,10.27,3.00,7.10,0.00,0.00,0.00,1.34,0.70,0.74,0.34,1.84,0.00,0.00,0.85
Jhabua,"1,319",22.769666,74.5920921,0.00,1.00,39.10,0.00,0.00,0.00,1.23,0.65,0.87,1.10,0.65,0.00,0.00,1.26
Dhar,"1,569",22.6012922,75.3024655,7.21,28.29,16.36,0.00,0.00,0.00,2.78,1.64,1.29,1.51,0.74,0.00,0.00,0.91
Indore,"1,568",22.7195687,75.8577258,17.04,3.00,5.04,0.00,0.00,0.00,2.53,1.25,0.91,0.85,0.89,0.00,1.00,1.00
West Nimar,898,21.90287,75.8069082,18.89,1.00,5.73,0.00,0.00,0.00,2.72,1.26,0.69,1.04,0.00,0.00,0.00,0.80
Barwani,"1,034",22.0363157,74.903339,45.67,9.87,13.79,1.00,0.00,0.00,2.52,1.13,0.90,1.85,0.00,0.00,0.00,0.68
East Nimar,918,21.8802526,76.6412712,9.00,30.00,8.04,0.00,0.00,0.00,2.38,1.30,0.76,0.83,0.00,0.00,0.50,0.71
Rajgarh,"1,326",24.0078819,76.7278803,5.92,0.00,6.60,0.00,0.54,0.00,1.10,0.81,1.08,0.71,1.17,0.00,0.00,0.69
Vidisha,"1,099",23.5251102,77.8081363,0.00,0.00,0.00,0.00,0.00,0.00,1.54,1.00,0.71,0.96,1.07,1.00,0.00,0.96
Bhopal,"2,316",23.2599333,77.412615,0.00,0.00,0.00,0.00,0.00,0.00,2.26,0.93,1.04,0.81,0.49,0.00,0.00,1.22
Sehore,"1,170",23.205012,77.0850781,0.00,0.00,2.33,0.00,0.00,0.00,1.62,0.81,0.81,0.75,0.89,0.00,1.00,0.60
Raisen,"1,477",23.3327329,77.7823973,0.00,2.00,1.00,0.00,0.00,0.00,1.69,0.86,1.05,0.87,1.64,0.00,1.50,0.91
Betul,692,21.9108031,77.9011842,13.10,0.00,22.23,0.00,0.00,0.00,1.81,1.42,1.56,0.67,1.00,0.00,2.13,0.41
Harda,"1,090",22.3355446,77.0996085,0.00,0.00,0.00,0.00,0.00,0.00,2.25,1.56,1.00,0.65,1.00,0.00,0.00,0.58
Hoshangabad,"1,204",22.744108,77.736967,10.00,0.00,0.00,0.00,0.00,0.00,2.35,1.09,0.68,0.25,0.25,0.00,0.00,1.03
Katni,"1,427",23.8308453,80.4072255,0.00,0.00,0.00,0.00,0.00,0.00,4.48,1.37,2.37,0.89,1.00,0.00,0.00,0.75
Jabalpur,"1,398",23.181467,79.9864071,0.00,0.00,0.00,0.00,5.53,0.00,2.79,0.68,2.05,0.57,0.42,0.00,0.00,0.55
Narsimhapur,"1,421",22.946557,79.1943534,0.00,0.00,0.10,0.00,0.00,0.00,3.05,0.61,0.66,1.38,0.00,0.00,2.00,1.15
Dindori,666,22.9417931,81.0768455,1.00,0.00,1.00,0.00,0.00,0.00,1.20,1.20,2.42,0.73,0.50,0.00,0.00,0.43
Mandla,715,22.5979218,80.3713855,0.50,0.00,4.53,0.00,0.00,1.00,1.54,0.69,1.53,0.57,1.26,0.50,1.90,0.59
Chhindwara,800,22.057437,78.9381729,10.51,0.00,22.18,0.00,0.00,0.00,1.93,1.06,1.08,0.76,1.66,1.50,0.00,0.61
Seoni,790,22.0868691,79.5434841,0.00,0.00,1.60,0.00,0.00,0.00,1.86,1.21,1.00,0.83,1.61,5.00,0.50,0.78
Balaghat,794,21.812876,80.1838293,0.00,0.00,0.00,0.00,0.00,0.00,1.96,0.42,0.50,0.91,1.21,0.00,0.00,0.53
Ashoknagar,"1,579",24.5775148,77.7318495,0.00,0.00,0.00,2.00,0.00,0.00,1.13,0.80,0.97,1.48,1.00,0.00,0.00,0.71
Anuppur,825,23.1136554,81.697629,0.00,0.00,0.00,0.00,0.00,0.00,2.97,0.58,1.71,1.06,0.00,0.00,0.00,0.44
Burhanpur,"1,146",23.2099902,81.956891,0.00,0.00,3.21,0.00,0.00,0.00,2.45,1.17,0.77,0.00,0.50,0.00,0.00,0.69
Alirajpur,814,22.3054748,74.3454265,0.00,0.00,44.22,0.00,0.00,0.00,1.23,1.70,0.77,2.30,0.25,0.00,0.00,0.62
Singrauli,922,24.1989812,82.6434514,0.00,0.00,0.00,0.00,0.00,0.00,2.93,1.23,1.36,1.76,0.90,1.40,0.00,0.78
Kachchh,"2,286",23.7337326,69.8597406,6.10,15.35,47.87,0.00,0.00,0.00,0.75,1.67,0.50,0.33,0.25,0.00,1.79,0.95
Banas,"1,447",24.3070289,72.3514618,0.00,35.13,26.96,0.00,0.00,0.00,0.74,1.18,0.25,0.48,0.53,0.50,0.00,0.60
Patan,"1,316",23.8493246,72.1266255,38.29,29.82,0.00,0.00,0.00,0.00,0.79,1.05,1.00,0.73,0.56,0.00,0.00,0.68
Mahesana,"1,695",23.5879607,72.3693252,23.55,16.79,13.04,0.00,0.00,0.00,0.68,0.74,0.39,0.44,0.50,0.00,0.50,0.62
Sabar,"1,198",23.8476704,72.9932969,5.00,5.38,18.42,0.00,0.00,0.00,1.69,0.95,0.56,0.99,0.58,0.00,0.00,0.50
Gandhinagar,"1,726",23.2156354,72.6369415,5.86,7.56,1.35,5.00,0.50,0.00,1.35,1.63,1.00,0.51,0.47,0.00,0.64,0.60
Ahmadabad,"2,228",23.022505,72.5713621,1.05,3.43,0.89,0.50,0.31,0.00,1.55,1.16,0.86,0.53,0.60,0.00,0.74,0.74
Surendranagar,"1,669",22.7201319,71.649536,4.78,25.09,0.20,0.00,0.00,0.00,1.08,1.98,0.00,0.43,0.33,0.00,0.25,0.85
Rajkot,"2,240",22.3038945,70.8021599,1.58,4.77,0.00,2.00,0.00,0.00,1.02,0.86,0.18,0.52,0.32,1.25,0.22,0.86
Jamnagar,"1,473",22.4707019,70.05773,9.47,8.60,1.67,2.00,0.00,0.00,1.02,1.00,0.36,0.47,0.25,0.00,0.57,0.58
Porbandar,"1,392",21.6417069,69.6292654,11.94,12.92,2.63,10.00,0.00,0.00,0.87,1.06,0.29,0.54,0.20,0.10,1.12,0.49
Junagadh,"1,921",21.522184,70.4578768,0.60,6.96,2.00,2.00,0.00,0.00,0.96,0.90,0.35,0.44,0.35,0.00,0.50,0.95
Amreli,"1,475",21.6031774,71.2220832,2.15,9.28,0.25,0.00,0.25,0.00,0.91,0.74,0.36,0.57,0.11,0.00,0.00,0.60
Bhavnagar,"1,581",21.7644725,72.1519304,2.00,11.90,1.11,0.00,0.50,0.00,0.99,0.65,0.50,0.44,0.34,0.00,0.39,0.40
Anand,"1,244",22.5645175,72.928871,2.47,12.43,9.80,12.00,0.00,0.00,1.93,0.98,0.56,0.93,0.43,0.00,0.00,0.55
Kheda,"1,001",22.750651,72.6846658,0.50,9.77,3.97,3.00,0.00,0.00,1.98,1.25,0.87,0.78,0.45,0.00,0.00,0.55
Panch Mahals,"1,059",22.8011177,73.5594128,8.00,20.38,23.75,0.00,0.00,0.00,2.90,1.00,0.51,0.58,0.61,2.50,0.64,0.68
Dohad,915,22.8379314,74.2531465,0.00,2.30,21.54,1.50,0.00,0.00,2.08,1.17,0.59,0.70,0.48,0.00,1.01,0.71
Vadodara,"1,666",22.3071588,73.1812187,6.64,11.84,26.77,0.50,0.00,0.00,2.85,0.84,0.84,0.60,0.38,0.00,0.50,0.69
Narmada,"1,107",21.8757175,73.5594128,18.87,24.50,13.24,0.00,0.00,0.00,2.87,0.79,0.59,0.60,0.48,0.00,0.00,0.57
Bharuch,"1,860",21.7051358,72.9958748,10.18,13.50,7.46,0.00,0.00,0.00,2.52,0.88,0.67,0.37,0.42,0.00,0.00,0.74
Surat,"2,242",21.1702401,72.8310607,8.11,7.89,1.06,3.00,0.00,0.00,1.65,0.72,0.47,0.45,0.66,0.00,0.41,0.68
The Dangs,"1,019",20.8253781,73.7007088,5.70,2.00,2.50,0.00,0.00,16.09,2.17,0.48,0.25,2.83,0.48,0.00,0.19,0.30
Navsari,"1,927",20.9467019,72.9520348,6.24,3.97,0.00,0.00,0.00,11.56,2.97,1.57,1.44,1.16,0.45,0.25,0.37,0.62
Valsad,"3,169",20.5992349,72.9342451,5.73,10.00,0.00,0.00,0.00,11.16,2.74,1.26,1.24,1.22,0.27,1.00,0.00,0.57
Diu,"1,763",20.7144094,70.9873719,0.00,6.05,0.00,2.75,0.00,0.00,0.54,0.37,0.30,0.29,0.00,0.00,0.00,0.36
Daman,"2,279",20.3973736,72.8327991,11.80,2.11,0.00,0.00,0.00,0.00,1.46,1.21,0.70,0.81,0.50,0.00,0.25,0.39
Dadra & Nagar Haveli,"1,572",20.2777871,73.0641396,5.57,2.97,0.00,0.00,0.00,6.63,2.32,0.98,0.89,1.44,0.58,0.00,1.07,0.58
Nandurbar,"1,366",21.3755507,74.2427644,14.65,9.38,10.10,0.00,1.61,3.00,1.88,1.29,0.59,1.57,0.38,0.00,0.66,0.56
Dhule,"1,423",20.9042201,74.7748979,8.95,10.94,1.00,0.00,0.76,0.62,1.79,0.92,0.63,0.77,0.80,0.00,0.50,0.58
Jalgaon,"1,610",21.0076578,75.5626039,10.32,7.78,2.00,2.00,1.28,1.67,1.45,1.02,0.79,0.91,0.59,0.00,1.61,0.76
Buldana,"1,171",20.5292147,76.1841701,9.74,2.58,1.70,0.00,0.00,0.00,2.07,0.74,0.48,0.64,0.29,0.00,0.11,0.60
Akola,"1,454",20.7059345,77.0219019,9.54,2.49,0.00,0.00,0.00,0.00,2.11,0.54,0.49,0.53,0.71,0.00,0.00,0.72
Washim,"1,189",20.1119123,77.1312586,9.08,5.03,0.00,0.00,0.00,0.00,1.96,0.79,0.54,0.53,0.55,0.00,0.00,0.60
Amravati,"1,920",20.9374238,77.7795513,5.91,3.77,1.00,0.00,0.00,0.00,2.50,0.59,0.76,0.53,0.73,0.00,0.50,0.46
Wardha,"1,608",20.745319,78.6021946,4.54,1.00,0.00,0.00,0.00,0.00,2.64,0.88,0.48,0.48,0.58,1.00,0.00,0.52
Nagpur,"1,904",21.1458004,79.0881546,3.13,1.17,0.00,0.00,0.00,0.22,2.32,0.63,0.54,0.61,0.61,0.89,0.00,0.77
Bhandara,"1,364",21.1750113,79.6558242,1.49,0.00,0.00,0.00,0.00,0.00,1.85,0.57,0.55,0.53,0.48,1.22,0.26,0.48
Gondiya,"1,338",21.4624491,80.2209773,1.18,0.00,0.00,0.00,0.00,0.00,1.65,0.73,0.43,0.87,0.52,1.03,0.25,0.51
Gadchiroli,"1,346",20.184871,79.9947956,1.28,0.00,0.00,0.00,0.00,0.00,2.08,0.92,0.49,0.59,0.50,1.57,0.00,0.71
Chandrapur,"1,345",19.9704597,79.3014845,1.12,0.00,0.00,0.00,0.00,0.00,2.24,0.49,0.60,0.51,0.52,1.73,0.00,0.77
Yavatmal,"1,393",20.3887937,78.1204073,7.91,2.09,0.00,0.00,0.50,0.00,2.50,0.59,0.69,0.63,0.72,0.50,0.84,0.43
Nanded,"1,432",19.1382514,77.3209555,15.01,21.10,0.00,0.00,0.70,1.00,2.05,1.30,0.80,0.84,0.00,0.00,0.00,0.81
Hingoli,"1,425",19.7173703,77.1493722,13.93,0.00,0.00,0.00,0.80,1.00,2.47,1.45,0.74,1.01,1.26,0.00,0.00,1.05
Parbhani,"1,382",19.2609958,76.776665,12.80,4.32,0.00,0.00,0.64,0.50,1.65,0.98,0.63,0.70,0.53,0.00,0.00,0.71
Jalna,"1,041",19.8296893,75.8800305,9.59,9.28,0.00,0.00,0.61,1.00,1.63,0.93,0.85,0.67,0.84,0.00,0.25,0.61
Aurangabad,"1,377",19.870244,75.2351604,5.92,11.02,0.00,0.00,0.32,0.00,1.24,0.67,0.62,0.60,0.40,0.00,0.20,0.78
Nashik,"1,964",19.9974533,73.7898023,11.09,9.75,7.64,10.15,1.01,16.86,1.36,0.91,0.63,0.71,0.51,0.50,0.00,0.80
Thane,"2,374",19.2183307,72.9780897,4.97,4.78,1.77,0.00,9.00,18.24,2.17,0.98,0.90,1.03,0.62,4.55,0.77,0.63
Mumbai,"2,953",19.1538231,72.8751786,4.87,2.63,1.14,0.00,2.00,3.57,2.08,0.87,0.76,0.72,0.55,1.60,0.42,0.69
Raigarh,"1,479",18.4899583,72.6965274,5.40,5.09,0.00,0.00,0.00,7.71,1.59,1.23,1.29,1.04,0.44,0.00,0.41,0.50
Pune,"2,282",18.5204303,73.8567437,7.13,6.96,9.00,12.00,0.63,0.00,1.39,0.90,0.69,0.62,0.61,0.25,0.49,0.82
Ahmadnagar,"1,421",19.0952075,74.7495916,9.29,14.21,4.95,3.14,1.46,9.83,1.28,1.11,0.79,0.67,0.41,0.00,2.00,0.81
Bid,"1,673",18.9890893,75.7600785,9.23,10.07,0.00,0.00,0.95,0.50,1.29,0.81,0.65,0.66,0.44,0.00,0.26,0.74
Latur,"1,597",18.4087934,76.5603828,19.52,3.00,1.00,1.00,0.77,1.00,2.67,1.44,0.87,0.83,0.65,0.25,1.00,0.82
Osmanabad,"1,318",18.1860659,76.0419409,15.30,9.72,0.00,0.00,0.83,0.94,1.96,0.97,0.99,0.98,0.74,1.14,1.00,0.78
Solapur,"1,675",17.6599188,75.9063906,15.58,11.11,10.74,0.00,0.91,0.87,1.97,0.97,1.03,0.98,0.65,1.00,1.00,0.86
Satara,"1,672",17.6804639,74.018261,10.35,7.87,0.00,0.00,1.00,10.00,1.02,0.71,0.47,0.80,0.43,0.88,0.19,0.83
Ratnagiri,"1,425",16.990215,73.3120233,4.20,6.70,0.00,0.00,0.00,9.09,1.17,0.93,0.85,0.58,0.65,1.00,0.00,0.65
Sindhudurg,"1,594",16.3492193,73.5594128,5.15,0.00,7.00,4.56,0.50,5.20,0.99,0.70,0.59,0.58,0.27,0.00,0.00,0.44
Kolhapur,"1,676",16.7049873,74.2432527,9.35,8.21,0.00,3.88,0.56,9.53,1.28,0.92,0.77,0.63,0.38,0.00,0.00,0.64
Sangli,"1,464",16.8523973,74.5814773,11.38,5.16,5.00,0.50,0.50,0.00,1.02,0.83,0.64,0.55,0.44,1.00,0.00,0.49
Adilabad,"1,479",19.4230512,78.4471297,6.62,0.00,3.79,0.00,0.00,0.00,1.48,1.13,0.64,0.61,0.50,0.00,0.50,0.65
Nizamabad,"1,149",18.2836461,84.0140984,4.83,0.00,0.00,0.00,0.00,0.00,1.34,1.23,1.05,0.73,0.00,0.00,0.00,0.72
Karimnagar,"1,458",18.3890336,79.1398601,7.55,0.00,0.00,0.00,0.00,0.00,0.96,0.85,0.49,0.45,0.00,0.00,0.00,0.30
Medak,"1,280",17.4466815,78.3573899,5.61,0.00,0.00,0.00,0.00,0.00,1.20,0.85,0.44,0.99,0.00,0.00,0.00,0.65
Hyderabad and Rangar,"2,784",17.4126274,78.267957,3.32,0.00,0.00,0.73,0.00,1.59,2.07,0.88,0.99,1.00,0.37,0.00,0.31,0.70
Rangareddi,"1,811",14.9051797,79.9948481,9.74,1.00,3.00,0.50,0.00,1.17,1.97,0.72,0.68,0.96,0.65,1.00,0.31,0.81
Mahbubnagar,"1,364",16.3841436,78.1108279,6.63,0.00,2.50,0.50,0.00,2.09,2.28,0.79,0.94,0.85,0.00,0.00,0.33,0.44
Nalgonda,"1,486",17.1882998,79.1999949,3.25,0.00,0.00,0.00,0.00,1.26,1.65,0.83,0.74,1.14,0.00,0.50,0.40,1.10
Warangal,"1,754",17.0143104,80.3759106,10.62,1.00,0.00,0.00,0.00,0.97,1.86,1.03,0.70,0.75,0.00,0.00,0.87,0.57
Khammam,"1,639",17.6350961,80.6326916,2.66,0.00,0.00,0.00,0.00,1.00,1.67,0.77,0.69,0.73,0.67,0.00,0.00,0.48
Srikakulam,"1,470",18.2969747,83.8967813,0.00,0.00,0.00,0.38,0.00,3.13,1.96,0.74,0.50,1.17,0.63,0.00,0.53,0.47
Vizianagaram,"1,355",18.1066576,83.3955506,0.00,2.00,0.29,0.53,0.00,4.45,1.37,0.75,1.39,1.04,0.53,0.00,0.35,0.50
Visakhapatnam,"1,464",17.6868159,83.2184815,0.00,0.00,0.74,0.31,8.31,4.74,1.43,0.81,0.72,1.13,0.59,1.00,0.36,0.51
East Godavari,"1,558",17.32125,82.0407137,0.50,0.00,1.00,0.71,0.25,1.20,1.10,0.55,0.45,1.27,0.61,0.00,0.69,0.46
West Godavari,"1,637",16.9174181,81.3399414,1.00,0.00,1.00,0.50,1.00,1.35,1.68,0.61,0.79,1.64,0.37,0.44,0.46,0.63
Krishna,"2,005",16.6099914,80.7214417,4.91,0.00,0.00,0.97,0.00,1.20,1.76,0.78,2.98,1.76,0.56,0.84,0.44,0.70
Guntur,"1,645",16.3066525,80.4365402,2.19,0.25,1.02,0.10,0.00,0.94,1.59,0.62,0.17,1.35,0.00,0.00,0.00,0.73
Prakasam,"1,500",15.348463,79.560344,2.16,0.00,0.00,0.00,0.00,1.14,2.31,1.01,0.50,1.16,1.66,0.50,0.43,0.42
Nellore,"1,536",14.4425987,79.986456,0.00,2.00,0.00,0.00,0.00,1.22,1.94,0.80,1.24,1.26,0.61,0.00,0.42,0.49
Cuddapah,"1,654",14.4673541,78.8241339,2.27,1.76,0.00,0.00,0.00,1.43,1.85,0.53,0.00,0.80,0.00,0.50,0.38,0.53
Kurnool,"1,246",15.8281257,78.0372792,6.09,7.34,0.00,0.00,0.00,2.18,2.77,0.33,0.97,0.68,1.00,0.00,0.25,0.35
Anantapur,"1,307",14.6818877,77.6005911,4.44,1.37,1.96,0.00,0.00,4.25,2.54,0.40,4.25,0.56,0.45,0.00,0.36,0.85
Chittoor,"1,585",13.217176,79.1003289,0.69,1.00,0.00,0.00,0.00,1.80,1.85,0.62,0.25,0.93,0.25,0.00,0.30,0.50
Belgaum,"1,405",15.8496953,74.4976741,10.66,1.06,9.41,0.00,1.00,1.55,1.33,0.84,0.64,0.49,0.59,0.65,0.30,0.51
Bagalkot,"1,083",16.1725355,75.6557206,11.71,1.92,3.42,0.00,0.00,2.82,1.45,0.86,0.72,0.42,0.77,0.00,0.48,0.44
Bijapur,"1,178",16.8298805,75.6825177,11.77,4.83,2.18,0.00,0.00,3.42,1.48,0.75,0.64,0.39,0.63,2.00,0.33,0.50
Gulbarga,"1,212",17.329731,76.8342957,16.69,6.99,0.00,0.00,0.00,0.00,3.26,0.87,0.92,0.69,0.91,0.00,0.00,0.57
Bidar,"1,184",17.9148799,77.5046101,14.46,2.08,0.00,0.00,0.00,0.00,2.92,1.08,1.29,0.95,0.00,0.00,0.00,0.75
Raichur,"1,125",16.2120031,77.3439283,12.08,28.49,0.00,0.00,0.00,5.00,2.52,0.54,0.58,0.52,0.50,0.00,0.51,0.30
Koppal,"1,100",15.3507081,76.1554311,16.47,10.50,0.00,0.00,0.00,3.29,2.29,0.67,0.30,0.45,0.00,0.00,0.56,0.79
Gadag,"1,393",15.4324651,75.6380337,7.77,4.00,0.00,0.00,0.00,1.06,1.25,0.87,0.00,0.35,0.78,0.50,0.28,0.50
Dharwad,"1,581",15.4589236,75.007808,10.39,3.50,0.00,0.00,0.00,2.62,1.79,0.88,2.22,0.56,0.48,0.69,0.90,0.38
Uttara,"1,466",14.7937065,74.6868815,8.97,0.00,0.00,0.00,0.00,4.04,1.11,0.72,0.44,0.61,0.40,0.00,0.61,0.49
Haveri,"1,351",14.7959027,75.3971254,12.70,0.00,0.00,0.00,0.00,3.33,2.06,0.84,1.00,0.50,0.42,0.00,0.32,0.40
Bellary,"1,111",15.1393932,76.9214428,12.33,0.00,0.00,0.00,0.00,3.60,2.21,0.50,0.87,0.45,0.37,0.48,0.76,0.33
Chitradurga,"1,092",14.2305594,76.3984537,8.66,6.00,0.00,0.00,0.00,10.71,2.09,0.42,0.40,0.30,0.37,1.00,0.69,0.35
Davanagere,"1,209",14.4663438,75.9238397,6.93,0.00,0.00,0.00,0.00,6.28,1.35,0.72,0.52,0.46,0.43,1.00,0.81,0.31
Shimoga,"1,262",13.9299299,75.568101,9.45,5.00,3.00,0.00,0.00,6.34,0.97,0.48,0.20,0.35,0.29,0.20,0.23,0.34
Udupi,"2,056",13.3408807,74.7421427,0.00,0.00,0.00,0.00,0.00,1.69,0.69,0.64,0.77,0.65,0.60,0.40,0.61,0.61
Chikmagalur,"1,178",13.315258,75.7754018,2.84,0.00,0.00,0.00,4.00,5.50,0.99,0.23,0.00,0.36,0.39,0.00,0.26,0.23
Tumkur,"1,158",13.3391677,77.1139984,1.25,0.00,0.00,0.00,0.00,15.63,1.76,0.69,0.48,0.51,0.39,0.50,1.23,0.46
Kolar,"1,676",13.1357446,78.1325611,1.50,0.00,1.00,0.00,4.50,15.82,1.97,0.87,0.71,0.69,0.46,0.10,0.88,0.41
Bangalore,"3,085",12.9715987,77.5945627,1.65,0.00,0.00,0.00,0.00,7.00,1.81,0.79,0.61,0.93,0.49,0.00,0.67,0.43
Bangalore Rural,"1,643",13.2846993,77.6077865,0.00,0.00,2.00,0.00,0.00,14.18,2.10,0.64,0.52,0.63,0.43,0.00,0.00,0.52
Mandya,"1,647",12.5221567,76.9009191,6.53,0.00,0.00,0.00,5.00,11.51,1.41,0.38,0.26,0.64,0.52,0.15,0.26,0.61
Hassan,"1,264",13.0068142,76.0995519,0.00,0.00,1.00,0.00,0.00,11.20,0.90,0.47,0.50,0.41,0.42,0.00,0.31,0.40
Dakshina Kannada,"2,109",12.8437814,75.2479061,4.27,0.00,0.00,0.00,0.00,1.59,0.74,0.65,0.78,0.98,0.63,0.00,0.52,0.55
Kodagu,"3,968",12.3374942,75.8069082,0.00,0.00,0.00,0.00,0.00,1.98,0.72,0.61,0.54,0.66,0.42,0.00,0.42,0.68
Mysore,"1,585",12.2958104,76.6393805,4.68,0.00,0.00,0.00,0.00,8.45,1.59,0.39,0.00,0.70,0.40,0.00,0.17,0.40
Chamarajanagar,"1,382",11.9261471,76.9437312,3.60,0.00,0.00,0.00,0.00,10.47,1.71,0.74,0.00,0.62,0.84,0.00,0.16,0.98
Ramanagar,"1,396",15.4181142,74.4812964,3.00,0.00,0.00,0.00,0.00,13.93,1.91,0.72,0.00,1.23,0.46,0.00,0.52,0.49
Chikkaballapura,"1,340",13.4311546,77.7139458,0.00,0.00,0.00,0.00,0.00,16.52,2.27,0.81,0.50,0.61,0.59,0.00,2.00,0.58
North Goa,"2,548",15.5163112,73.9830029,5.41,0.00,0.00,0.00,1.00,1.35,0.80,0.77,0.74,0.51,0.69,0.00,0.86,0.58
South Goa,"2,854",15.11766,74.123996,7.98,0.00,0.00,0.00,1.13,1.42,0.77,0.85,0.65,0.62,0.66,0.00,0.29,0.55
Lakshadweep,"2,863",8.2954408,73.0489728,0.00,0.00,0.00,0.00,0.00,0.50,1.84,1.34,1.00,1.07,1.16,1.13,0.00,0.00
Kasaragod,"1,305",12.5102239,74.9851678,0.00,0.00,0.00,0.00,0.00,0.50,0.53,0.62,0.51,0.69,0.61,0.00,0.25,0.33
Kannur,"1,633",11.8744775,75.3703662,0.00,0.00,0.00,0.00,0.00,3.00,0.68,0.86,0.62,0.95,0.78,0.73,0.00,0.08
Wayanad,"2,061",11.703206,76.0833999,0.00,0.00,0.00,0.40,0.00,0.90,0.46,0.76,0.31,0.38,0.62,0.00,1.00,0.12
Kozhikode,"1,884",11.2587531,75.78041,0.00,0.00,0.00,0.00,0.00,1.41,0.52,0.86,1.00,0.60,0.57,0.56,0.84,0.29
Malappuram,"1,621",11.0731819,76.0739999,0.00,0.00,0.00,0.00,0.00,0.88,0.53,0.92,0.52,0.72,0.80,0.00,0.25,0.44
Palakkad,"1,766",10.7867303,76.6547932,0.00,0.00,0.00,0.00,0.00,0.79,0.68,0.60,0.10,0.87,0.75,0.00,1.02,0.37
Thrissur,"2,286",10.5276416,76.2144349,0.00,0.00,0.00,0.10,0.00,1.08,1.04,0.71,0.63,0.83,0.81,0.97,0.52,0.40
Ernakulam,"2,616",9.9816358,76.2998842,0.00,0.50,1.06,0.16,0.00,0.69,0.75,0.79,0.71,0.76,0.72,1.35,0.42,0.81
Idukki,"2,487",9.8138076,76.9297354,3.00,0.00,0.00,0.00,0.00,0.00,0.60,0.67,3.00,0.69,0.66,0.00,0.00,0.48
Kottayam,"2,809",9.5915668,76.5221531,0.00,0.00,0.00,0.00,0.00,1.43,0.62,0.76,1.00,0.91,0.77,1.50,1.05,0.41
Alappuzha,"2,193",9.4980667,76.3388484,0.00,0.00,0.00,0.00,0.00,0.62,0.57,0.84,0.00,0.89,0.55,0.50,0.50,0.50
Pathanamthitta,"2,241",9.2647582,76.7870414,0.00,0.00,0.00,0.00,0.00,0.91,0.47,0.57,0.50,0.83,0.54,0.00,0.50,0.12
Kollam,"2,200",8.8932118,76.6141396,0.00,0.00,0.00,0.00,0.00,1.28,0.54,0.99,0.64,1.11,0.70,0.54,0.43,0.44
Thiruvananthapuram,"2,567",8.5241391,76.9366376,0.00,0.00,0.43,0.42,0.00,0.72,0.58,0.86,1.52,1.26,0.55,0.58,0.49,0.68
Thiruvallur,"2,227",13.1444426,79.8940078,0.00,2.43,1.00,0.73,0.00,1.68,1.64,0.56,0.88,1.29,0.64,0.00,0.35,0.54
Chennai,"2,852",13.0826802,80.2707184,0.00,0.00,0.50,0.00,0.00,1.21,1.71,0.62,0.59,1.32,0.60,0.50,0.39,0.44
Kancheepuram,"2,041",12.8341735,79.7036402,2.00,0.99,0.00,0.00,2.00,2.06,1.73,0.48,0.42,1.43,0.56,0.00,0.39,0.46
Vellore,"1,326",12.9165167,79.1324986,0.00,0.00,0.00,2.70,1.56,2.69,1.68,0.52,0.00,1.46,0.54,0.00,0.43,0.48
Dharmapuri,"1,717",12.1065271,78.1361409,4.03,4.52,2.00,0.00,0.00,3.22,1.76,0.55,0.00,0.98,0.25,0.00,0.48,0.29
Tiruvannamalai,"1,213",12.2252841,79.0746957,10.00,6.55,0.00,0.00,0.00,2.10,1.64,0.43,0.25,1.35,0.37,1.00,0.36,0.53
Viluppuram,883,11.9368897,79.4872619,0.00,0.00,0.00,0.00,0.00,0.88,1.27,0.20,1.79,1.34,0.15,0.00,0.49,0.20
Salem,"1,418",11.664325,78.1460142,0.00,0.00,0.00,0.00,0.00,3.61,1.78,0.66,0.80,1.19,0.61,0.00,0.48,0.53
Namakkal,"1,638",11.2194391,78.1677236,10.00,5.82,0.00,0.00,0.00,1.26,1.53,0.59,0.43,1.22,0.46,0.00,0.65,0.97
Erode,"1,779",11.3410364,77.7171642,1.50,1.00,2.08,0.00,0.00,2.20,1.43,0.33,0.17,1.03,0.49,0.50,0.27,0.48
The Nilgiris,"1,516",11.4916043,76.7336521,0.00,0.00,0.00,0.00,0.00,1.34,1.19,0.60,1.00,1.03,0.66,0.00,0.43,0.80
Coimbatore,"2,267",11.0168445,76.9558321,0.10,4.80,0.00,0.00,0.00,1.26,1.31,0.66,0.70,1.21,0.45,0.25,0.28,0.45
Dindigul,"1,674",10.3673123,77.9802906,0.00,1.73,3.00,0.00,0.00,1.24,1.42,0.58,1.00,1.15,0.31,0.26,0.49,0.39
Karur,"1,637",10.9600778,78.0766036,2.00,0.00,3.00,0.00,0.00,2.15,1.64,0.58,0.25,1.33,0.34,0.00,0.67,0.30
Tiruchirappalli,"1,674",10.7904833,78.7046725,0.00,0.00,2.59,0.00,2.30,1.50,1.83,0.42,0.00,1.44,0.54,0.00,0.58,0.65
Perambalur,"2,368",11.2409839,78.8665733,2.00,0.00,0.00,0.00,0.00,1.90,1.88,0.42,0.00,1.54,0.00,0.00,0.93,0.68
Ariyalur,"1,448",11.1400585,79.0786281,0.25,0.25,1.29,0.00,0.00,0.47,1.59,0.39,0.00,1.33,0.50,0.00,0.58,0.00
Cuddalore,"1,056",11.744699,79.7680243,0.00,1.50,0.00,0.00,0.00,3.47,1.31,0.24,0.34,1.28,0.93,0.00,0.34,0.20
Nagapattinam,"1,529",10.7656082,79.8423888,0.50,0.67,0.30,0.00,0.00,1.33,1.41,0.40,3.00,1.59,0.18,0.00,0.28,0.38
Thiruvarur,"1,642",10.7713187,79.6369974,0.00,0.00,0.00,0.00,0.00,0.95,1.26,0.31,0.50,1.25,0.39,0.00,0.26,0.25
Thanjavur,"1,798",10.7869994,79.1378274,0.00,0.00,2.00,0.00,0.00,1.38,1.33,0.36,0.50,1.26,0.34,0.00,0.32,0.34
Pudukkottai,"1,540",10.379663,78.8208454,0.00,0.00,0.65,0.00,0.00,1.90,1.78,0.58,0.32,1.53,0.68,0.50,0.56,0.84
Sivaganga,"1,342",9.8432999,78.4808775,0.50,0.00,0.00,0.00,0.00,0.66,0.94,0.23,0.50,1.14,1.77,0.00,0.25,0.52
Madurai,"1,755",9.9252007,78.1197754,0.00,0.00,0.00,0.50,0.50,1.89,1.46,0.58,1.00,1.21,0.31,0.35,0.52,0.50
Theni,"1,527",10.0103658,77.4768115,0.00,0.00,0.00,0.00,0.00,1.43,1.34,0.53,0.00,1.09,0.58,0.20,0.51,0.00
Virudhunagar,"1,630",9.5680116,77.9624435,1.00,0.00,2.00,0.00,3.00,0.79,1.10,0.53,1.00,1.04,0.25,0.45,0.35,1.00
Ramanathapuram,"1,342",10.9974549,76.9915961,0.00,0.00,0.00,0.00,0.00,0.69,1.12,0.45,0.00,1.04,0.33,0.49,0.37,0.20
Thoothukkudi,"1,309",8.7641661,78.1348361,0.00,0.00,1.00,0.00,0.00,1.56,1.22,0.54,0.50,1.17,0.47,0.20,0.39,0.39
Tirunelveli,"1,525",8.7139126,77.7566523,0.00,0.00,0.00,0.25,0.50,1.06,1.45,0.58,1.00,1.38,0.49,0.20,0.43,0.46
Kanniyakumari,"2,483",8.0883064,77.5384507,0.00,0.00,0.00,0.00,0.00,1.13,0.96,0.55,0.00,1.22,0.34,0.00,0.36,0.34
Krishnagiri,"1,872",12.5186113,78.2137365,0.97,1.06,0.00,0.00,0.00,4.88,1.83,0.65,0.00,1.07,0.49,0.00,0.65,0.44
Yanam,"1,806",16.7271912,82.2175775,0.00,0.00,0.60,0.50,0.00,1.32,0.99,0.58,0.00,1.44,0.23,0.00,0.31,0.37
Pondicherry,"2,582",11.9138598,79.8144722,0.00,1.00,0.00,0.00,2.00,1.70,1.61,0.48,0.55,1.61,0.71,0.10,0.59,0.31
Mahe,"1,897",11.7027158,75.5364042,0.00,0.00,0.00,0.00,0.00,0.00,0.54,1.00,0.00,0.70,0.30,0.00,1.53,0.00
Karaikal,"2,621",10.9254398,79.8380056,0.00,0.00,0.00,0.00,0.00,1.73,1.48,0.57,0.00,1.69,0.25,0.00,0.40,0.23
South Andamans,"3,460",11.8311681,92.6586401,0.00,0.00,0.00,0.00,0.00,0.00,1.71,1.03,1.43,0.92,0.70,0.50,0.00,0.60
Nicobars,"2,731",7.1205395,93.7841503,0.00,0.00,0.00,0.00,0.00,0.00,2.17,1.98,1.74,0.94,0.84,0.00,0.00,0.50
North and Middle Andamans,"1,999",12.6518832,92.8976254,0.00,0.00,0.00,0.00,0.00,0.00,2.06,1.40,1.60,0.92,0.79,0.00,0.00,0.57
