District,Median Income,Latitude,Longitude,jowar,bajra,maize,barley,small millets,ragi,arhar,moong,masur,urd,peas,khesari,gram products,besan,Cluster
Kupwara,"1,381",17.2630893,37.1273068,0.0,0.0,5.07,0.0,0.0,0.0,1.97,1.23,1.11,0.48,0.59,0.25,0.0,0.0,2
Baramula,"1,562",17.0995249,37.174974799999994,0.0,15.0,7.07,0.0,0.0,0.0,0.88,1.36,1.12,0.67,0.9,0.91,1.83,1.34,1
Srinagar,"2,041",17.0418354,37.39864125,0.0,0.0,1.39,0.0,0.0,0.0,0.58,0.68,0.66,0.5,0.77,1.43,0.93,1.0,2
Badgam,"1,360",17.005889649999997,37.3873342,0.0,0.0,6.2,0.0,0.0,0.0,0.0,0.76,0.71,0.0,0.56,0.0,1.0,0.0,2
Pulwama,"1,599",16.93580585,37.4472846,0.0,0.0,0.0,4.0,0.0,0.0,0.0,0.94,0.0,0.0,0.0,0.0,0.0,0.0,2
Anantnag,"1,534",16.86556275,37.574350349999996,0.0,0.0,15.23,0.0,0.0,0.0,0.0,0.97,1.5,0.0,0.0,0.0,1.0,0.0,0
Leh,"1,967",17.0831919,38.74834875,0.0,0.0,0.0,0.0,0.0,0.0,0.54,0.75,0.57,0.31,1.0,0.53,0.0,0.0,2
Kargil,"1,761",17.27922445,38.049754,4.56,3.04,0.0,4.0,0.0,0.0,0.0,1.11,1.15,0.0,0.87,0.0,1.0,0.97,2
Doda,"1,348",16.572874849999998,37.77402454999999,22.0,0.0,11.74,0.0,0.0,0.0,0.0,0.62,0.58,0.91,0.69,1.5,0.5,0.35,5
Udhampur,"1,224",16.4570294,37.5714826,0.0,0.0,15.4,5.0,0.0,0.0,1.75,0.65,0.58,0.83,0.58,0.5,0.88,0.28,0
Punch,"1,396",16.76858755,36.869175899999995,0.0,0.0,15.47,0.0,0.0,0.0,0.99,0.79,0.93,0.99,1.57,0.0,0.0,0.33,0
Rajauri,"1,540",16.68932225,37.14400235,0.0,5.0,16.78,0.0,0.0,0.0,0.97,0.79,0.9,0.92,0.96,2.5,0.46,0.35,0
Jammu,"2,571",16.3633008,37.428512950000005,0.0,0.0,4.79,0.0,0.0,0.0,0.89,0.63,0.6,1.04,0.56,1.5,0.76,0.4,2
Kathua,"1,857",16.19323995,37.7586344,0.0,0.0,10.88,0.0,0.0,0.0,0.67,0.57,0.59,1.16,0.49,0.0,0.5,0.35,2
Chamba,"1,383",16.27668165,38.06290415,0.0,0.0,9.98,0.0,0.0,0.0,0.69,0.59,0.62,1.28,1.0,1.91,0.53,0.39,2
Kangra,"1,579",16.04990155,38.134550299999994,0.0,2.53,7.36,10.0,0.0,0.0,0.79,0.61,0.74,1.01,0.99,1.0,0.58,0.37,2
Lahul,"1,582",16.309605350000002,38.68918945000001,0.0,0.0,0.0,3.66,0.0,0.0,0.5,0.6,0.81,1.03,0.25,0.0,0.0,0.25,2
Kullu,"1,469",15.9789255,38.55472985,0.0,2.0,8.62,0.0,0.0,0.0,0.68,0.78,0.78,1.09,1.0,0.0,0.0,0.46,2
Mandi,"1,361",15.854082750000002,38.465683750000004,0.5,0.5,5.94,0.0,0.0,0.0,0.76,0.76,0.77,1.11,0.82,1.1,1.14,0.43,2
Hamirpur,"2,591",15.84308725,38.2606546,0.0,10.0,9.84,0.25,0.0,0.0,0.75,0.93,0.79,1.47,0.77,0.5,0.96,0.77,2
Una,"2,286",15.734222500000001,38.13538725,0.0,5.69,12.45,5.0,0.0,0.0,0.87,0.8,0.79,1.18,0.5,1.0,1.02,0.71,0
Bilaspur,"1,999",15.151453449999998,38.645919299999996,20.0,0.0,9.53,0.0,0.0,0.0,0.73,1.06,0.85,1.28,1.07,0.84,0.94,0.69,5
Solan,"3,109",15.452242850000001,38.548367850000005,0.0,30.0,13.83,20.0,2.0,0.0,0.98,0.88,0.95,0.96,0.92,0.5,0.0,0.78,1
Sirmaur,"1,929",15.28142275,38.7350986,0.0,0.0,17.4,0.0,0.0,0.0,0.84,0.75,0.87,1.31,3.93,0.0,0.0,0.78,0
Shimla,"2,351",15.552407250000002,38.586701649999995,0.0,0.0,3.7,0.0,0.0,0.0,0.99,1.04,1.08,1.16,1.67,1.0,0.5,0.64,2
Kinnaur,"2,105",15.8254788,39.23759725,0.0,0.0,20.0,10.0,0.0,0.0,1.0,1.23,1.06,1.26,4.0,0.0,0.0,2.14,0
Gurdaspur,"2,015",16.020971199999998,37.70266835,0.0,0.0,2.8,0.0,0.0,0.0,0.67,0.5,0.43,0.79,0.54,0.0,0.0,0.57,2
Amritsar,"1,868",15.81698965,37.4361321,0.0,0.0,3.38,1.0,0.0,0.0,1.33,0.69,0.72,0.88,1.0,0.0,0.0,0.63,2
Kapurthala,"2,040",15.685740050000001,37.6968404,0.0,0.0,2.22,0.0,0.0,0.0,0.66,0.63,0.53,0.44,0.0,0.0,0.37,0.44,2
Jalandhar,"1,902",15.6630076,37.78809145,4.0,2.0,2.46,0.0,0.2,0.0,0.57,0.62,0.54,0.49,0.89,1.0,0.57,0.39,2
Hoshiarpur,"2,174",15.7571589,37.955741499999995,0.0,0.0,3.63,0.0,0.0,0.0,1.07,0.6,0.45,0.74,1.0,0.75,1.0,0.5,2
Nawanshahr,"1,741",15.545647699999998,38.019595450000004,0.0,0.0,3.24,0.0,0.0,0.0,0.44,0.6,0.56,0.41,0.25,0.0,0.0,0.49,2
Rupnagar,"2,215",15.482958400000001,38.2615117,0.0,0.0,2.36,0.0,0.0,0.0,0.91,0.87,0.67,0.72,1.0,0.0,0.0,0.7,2
Fatehgarh,"1,886",15.3239587,38.19488665,0.0,0.0,8.52,0.0,0.0,0.0,0.89,1.24,0.93,1.02,0.5,0.0,1.02,1.0,2
Ludhiana,"2,238",15.450482500000001,37.9286379,0.0,0.0,1.9,0.0,2.0,0.0,1.09,0.8,0.68,0.74,0.5,1.0,0.63,0.62,2
Moga,"1,950",15.40823015,37.58585465,0.0,0.0,3.09,0.0,0.0,0.0,5.0,1.03,0.78,0.65,0.0,0.0,1.0,0.94,2
Firozpur,"1,805",15.4665674,37.311237750000004,0.0,0.0,1.91,0.0,0.0,0.0,0.53,0.97,0.69,0.76,0.0,0.0,0.0,1.32,2
Muktsar,"1,595",15.23831955,37.255586,0.0,0.0,0.0,0.0,0.0,0.0,0.78,0.84,0.83,0.99,0.0,0.0,0.0,0.7,2
Faridkot,"2,723",15.3390935,37.36977955,0.0,0.0,2.72,0.0,0.0,0.0,1.0,0.99,0.68,0.48,0.0,0.0,0.0,0.72,2
Bathinda,"2,568",15.105497,37.47273725,0.0,0.79,0.86,0.0,0.0,0.0,0.32,0.74,0.4,0.74,1.0,0.0,0.37,0.49,2
Mansa,"2,142",14.999753449999998,37.6968404,0.0,1.02,1.0,0.0,0.0,0.0,1.5,1.01,0.72,0.56,0.0,0.0,0.69,0.65,2
Sangrur,"2,241",15.12289815,37.92103579999999,0.0,0.0,2.25,0.0,0.0,0.0,0.64,1.11,0.64,0.96,1.0,0.0,0.0,0.85,2
Patiala,"2,446",15.16989045,38.193439850000004,0.0,0.0,4.07,0.0,0.0,0.0,0.79,0.88,0.67,0.77,0.76,0.0,0.37,0.98,2
SJAS Nagar (Mohali),"2,427",15.352324300000001,38.358936299999996,0.0,0.0,1.64,0.0,0.0,0.0,0.62,0.71,0.62,0.81,1.34,0.0,0.0,0.67,2
Barnala,"1,843",15.1833856,37.75466645,0.0,0.0,4.57,0.0,0.0,0.0,0.0,0.93,0.76,0.85,0.5,0.0,0.0,0.54,2
Tarn Taran,"1,931",15.66083375,37.257988399999995,0.0,0.0,2.39,0.0,0.0,0.0,1.18,0.93,0.98,0.8,0.0,0.0,0.0,0.67,2
Chandigarh,"2,638",15.3699869,38.3783684,0.0,0.0,2.14,0.0,0.0,0.0,1.1,0.82,0.8,0.91,0.88,0.0,0.75,0.7,2
Uttarkashi,"1,808",15.363415349999999,39.217702100000004,0.0,0.0,1.46,0.0,0.0,5.0,0.88,0.43,1.02,0.56,0.72,2.0,0.0,0.33,2
Chamoli,"1,405",15.20205225,39.66588455,0.0,0.0,1.8,0.0,4.97,4.66,0.88,0.92,0.76,0.72,0.93,0.0,0.0,0.39,2
Rudraprayag,"1,583",15.14220705,39.49057035,0.0,0.0,0.0,0.0,4.93,4.57,0.91,0.5,0.85,0.69,1.0,0.0,0.0,0.43,2
Tehri,"1,215",15.150592900000001,39.2830426,0.0,0.0,1.34,0.0,2.54,3.45,1.18,0.89,1.14,1.0,1.91,1.0,0.0,0.43,2
Dehradun,"1,873",15.15728725,38.99922025,2.0,0.0,3.33,0.0,0.5,1.21,1.06,0.54,0.87,0.66,1.0,1.7,0.52,0.51,2
Garhwal,"1,648",14.934384099999999,39.41913220000001,0.0,0.0,1.0,0.0,4.52,4.54,0.96,0.57,0.8,0.64,0.8,1.0,0.65,0.41,2
Pithoragarh,"1,426",14.791430199999999,40.1090942,0.0,0.0,2.0,0.0,0.0,1.65,0.74,0.95,1.09,0.79,0.61,0.0,0.5,0.47,2
Bageshwar,"1,506",14.920180300000002,39.884713,0.0,0.0,0.0,0.0,0.0,4.48,0.82,0.65,1.26,1.0,2.34,0.77,0.0,0.5,2
Almora,"1,640",14.79462035,39.823333,0.0,0.0,0.0,0.0,0.0,5.5,0.78,0.47,1.06,0.8,0.96,0.0,0.0,0.49,2
Champawat,"1,530",14.6680487,40.04551375,0.0,0.0,0.0,0.0,0.0,3.44,1.2,0.6,1.03,1.14,1.28,0.0,0.0,0.42,2
Nainital,"1,875",14.690151949999999,39.7317829,0.0,0.0,0.0,0.0,0.0,0.0,1.04,0.62,1.24,0.83,1.03,0.0,0.0,0.82,2
Udham,"1,705",14.480482649999999,39.75768865,0.0,0.0,0.0,0.0,0.0,0.0,0.98,1.14,1.27,0.91,0.82,0.58,1.0,0.48,2
Hardwar,"1,551",14.972845300000001,39.0821239,0.0,0.0,2.52,0.0,0.0,0.0,1.11,0.9,1.16,0.89,0.54,3.0,0.25,0.61,2
Nainital(Hills),"1,373",14.704690900000001,39.7176981,0.0,0.0,0.0,0.0,0.0,6.47,1.23,0.57,1.17,1.57,1.95,0.0,0.0,0.69,2
Dehradun(Hills),"1,315",15.14191055,38.9539864,1.0,0.0,32.98,0.0,0.0,3.7,1.13,0.53,0.87,0.96,0.25,0.0,0.0,0.61,0
Panchkula,"1,812",15.347104550000001,38.430282500000004,0.0,0.0,1.51,0.0,0.0,0.0,1.47,0.93,1.0,0.89,1.44,0.0,2.0,0.72,2
Ambala,"1,867",15.1890894,38.3883487,0.0,0.0,2.68,0.0,0.0,0.0,0.93,0.95,1.0,1.18,1.17,0.0,0.25,0.71,2
Yamunanagar,"1,533",15.06452425,38.63369505,0.0,0.0,1.29,0.1,0.0,0.0,1.01,0.91,0.88,0.87,0.39,0.0,1.0,0.59,2
Kurukshetra,"1,804",14.984756050000001,38.439141,0.0,2.0,5.54,0.0,0.0,0.0,0.73,0.79,0.79,0.87,0.51,0.0,1.11,0.61,2
Kaithal,"1,724",14.8928367,38.19922685,0.0,1.32,1.88,0.0,0.0,0.0,0.7,0.77,0.91,0.76,0.0,0.0,0.5,0.86,2
Karnal,"1,942",14.84284645,38.49524125,0.0,2.86,2.0,0.0,0.0,0.0,0.73,0.97,0.77,0.62,0.0,0.0,0.33,0.71,2
Panipat,"2,075",14.695473199999999,38.481751149999994,0.0,3.23,3.0,0.0,0.0,0.0,1.76,0.96,0.86,0.7,1.22,0.0,0.92,0.78,2
Sonipat,"2,141",14.46438675,38.545640500000005,0.0,5.94,0.0,0.0,0.0,0.0,0.0,0.42,0.32,0.28,0.0,0.0,0.25,0.39,2
Jind,"2,347",14.66055765,38.1529164,0.0,2.78,2.73,0.0,0.0,0.0,1.25,0.6,0.42,0.48,2.0,0.0,0.32,0.45,2
Fatehabad,"1,718",14.753857949999999,37.7259758,0.0,9.82,3.0,0.0,0.0,0.0,1.28,1.2,0.7,0.91,1.0,0.0,0.0,1.08,2
Sirsa,"1,691",14.766796550000002,37.50885145,0.0,5.83,2.0,0.0,0.0,0.0,0.47,0.91,0.48,0.47,0.0,0.0,0.0,0.74,2
Hisar,"1,776",14.57459375,37.86082635,0.0,3.34,0.0,0.0,0.0,0.0,1.62,0.99,0.43,0.66,0.73,0.0,1.0,0.9,2
Bhiwani,"2,149",14.39952225,38.06675560000001,0.0,4.41,0.0,15.0,0.0,0.0,0.75,0.84,0.68,0.69,0.47,0.0,0.79,1.15,2
Rohtak,"2,459",14.447757600000001,38.3033055,0.0,2.11,0.83,0.0,0.0,0.0,0.5,0.87,0.7,0.63,0.25,0.0,0.89,0.8,2
Jhajjar,"2,188",14.30395575,38.32858875,2.0,2.19,3.47,0.0,0.0,0.0,0.58,0.97,0.67,0.55,0.94,0.5,0.0,0.76,2
Mahendragarh,"1,974",14.135509599999999,38.07469455,0.0,15.57,0.0,0.0,0.0,0.0,0.81,1.1,0.66,0.69,1.0,0.0,0.5,0.96,1
Rewari,"2,460",14.09638155,38.31197115,0.0,3.37,0.0,0.0,0.0,0.0,0.69,0.84,0.71,0.6,0.0,0.0,0.95,1.02,2
Gurgaon,"3,339",14.229748250000002,38.513319149999994,0.0,5.6,1.5,0.0,0.0,0.0,0.8,0.87,0.54,0.7,0.5,0.0,0.5,0.8,2
Faridabad,"2,526",14.20445615,38.658894700000005,0.0,2.0,0.0,1.0,0.0,0.0,0.71,0.81,0.7,0.51,0.61,0.25,0.0,0.81,2
Mewat,"1,535",14.0053458,38.5282232,0.0,4.25,0.66,0.0,0.0,0.0,0.62,1.12,0.7,0.55,0.5,0.5,0.25,1.19,2
North West Delhi,"2,879",14.385288699999998,38.53973525,0.0,0.0,2.73,0.46,0.0,0.0,1.02,0.75,0.84,0.64,0.57,0.0,0.58,0.55,2
North Delhi,"3,237",14.374194699999999,38.60301205,0.0,0.0,0.0,0.0,0.0,0.0,1.81,1.03,0.65,0.56,0.0,0.0,0.0,0.39,2
North East Delhi,"2,237",14.348282199999998,38.6317519,0.0,0.0,0.0,0.0,0.0,0.0,0.98,0.67,0.67,0.45,0.0,0.5,0.63,0.46,2
East Delhi,"1,915",14.30977955,38.6489891,0.0,0.0,0.0,0.0,0.0,0.0,0.66,0.56,0.7,0.64,0.2,0.0,0.0,0.6,2
New Delhi,"3,762",14.263759900000002,38.534448700000006,0.0,0.0,0.0,0.0,0.0,0.0,0.83,0.46,0.88,1.0,0.0,0.0,0.0,0.31,2
West Delhi,"1,954",14.3271413,38.49865955,0.0,0.0,0.0,0.0,0.0,0.0,1.59,1.14,0.83,0.38,0.0,0.0,0.0,0.6,2
South West Delhi,"3,222",14.29137885,38.51670895,0.0,1.91,0.0,0.0,0.0,0.0,1.0,0.5,0.53,0.61,0.5,0.0,0.0,0.43,2
South Delhi,"2,902",14.254324849999998,38.60876115,0.0,0.0,2.0,0.5,0.0,0.0,1.24,0.84,0.67,0.87,0.5,0.5,0.15,0.46,2
Ganganagar,"1,689",14.951919949999999,36.938595049999996,0.0,11.57,2.95,0.0,0.0,0.0,0.71,1.37,0.64,0.5,0.98,0.0,0.0,0.81,2
Hanumangarh,"1,793",14.807217999999999,37.14290604999999,0.0,4.21,10.0,0.0,0.0,0.0,0.62,1.12,0.78,0.74,0.0,0.0,0.0,0.76,2
Bikaner,"1,642",14.0114674,36.65595795000001,0.0,8.2,0.0,0.0,0.0,0.0,0.83,0.95,0.79,0.99,0.81,0.0,0.0,0.77,2
Churu,"1,598",14.1460242,37.480896200000004,0.0,27.72,0.0,0.0,0.0,0.0,0.73,1.3,0.68,0.41,0.0,0.0,0.0,0.82,1
Jhunjhunun,"2,140",14.064437349999999,37.69975445,0.0,12.9,0.0,0.5,0.0,0.0,1.12,1.22,0.59,0.81,0.0,0.0,0.0,0.89,1
Alwar,"1,688",13.776495350000001,38.31728675,2.0,28.25,0.0,6.92,0.0,0.0,0.65,0.96,0.66,0.62,0.5,0.0,0.5,1.26,1
Bharatpur,"1,117",13.6084905,38.7447575,0.0,16.21,80.0,0.0,0.0,0.0,0.66,0.75,0.53,0.61,1.0,0.0,0.52,0.97,0
Dhaulpur,"1,164",13.351259050000001,38.946695500000004,0.0,26.8,0.0,1.0,0.0,0.0,0.69,0.72,0.51,0.64,1.3,0.0,0.0,1.16,1
Karauli,"1,267",13.244161499999999,38.508071799999996,0.0,5.86,0.5,0.0,0.0,0.0,0.76,0.72,0.55,0.47,2.52,0.0,1.0,1.0,2
Sawai,"1,233",13.0188886,38.176075700000005,2.0,14.19,5.0,0.0,0.0,0.0,1.03,0.77,0.49,0.59,0.0,0.0,0.8,1.04,1
Dausa,"1,708",13.446596550000002,38.168764200000005,0.0,19.35,0.0,0.0,0.0,0.0,0.49,0.72,0.34,0.43,0.25,0.0,0.0,0.93,1
Jaipur,"1,955",13.4562168,37.893635450000005,1.36,17.41,1.62,17.63,0.0,0.0,0.54,0.81,0.51,0.45,0.32,0.0,0.43,0.79,1
Sikar,"1,806",13.8047,37.5699555,5.74,14.31,3.0,0.0,0.0,0.0,1.47,1.14,0.58,0.74,0.0,2.0,1.66,1.64,1
Nagaur,"1,528",13.5995611,36.870461999999996,10.0,31.55,7.17,0.0,0.0,0.0,0.35,1.32,0.5,0.85,2.0,0.0,0.0,0.58,1
Jodhpur,"1,744",13.11947345,36.5121547,10.48,47.52,0.0,0.0,2.0,0.6,0.53,1.49,0.91,0.5,0.0,0.0,1.0,1.05,1
Jaisalmer,"1,442",13.457874349999999,35.45417215,70.0,49.53,0.0,0.0,0.0,0.0,0.15,1.38,0.92,0.38,0.0,0.0,0.5,0.5,4
Barmer,"1,783",12.87657685,35.7090311,58.41,52.94,0.0,0.0,0.0,0.0,0.63,1.53,0.74,0.57,0.0,0.0,0.25,0.54,4
Jalor,"1,567",12.67223995,36.31268814999999,0.0,44.59,0.0,0.0,0.0,0.0,0.61,1.67,0.52,0.45,0.0,0.0,0.0,0.7,1
Sirohi,"1,299",12.442577400000001,36.4287279,0.0,5.0,14.62,0.0,0.0,0.0,0.61,0.72,0.48,0.66,0.5,0.0,0.0,1.88,0
Pali,"1,764",12.88554465,36.6617239,1.43,30.29,16.85,0.0,0.0,0.0,0.53,1.71,0.52,0.45,1.0,0.0,0.5,0.86,1
Ajmer,"1,751",13.224947699999998,37.31995815,0.0,23.67,15.72,30.0,0.0,0.0,0.43,0.91,0.56,0.66,0.25,0.0,0.0,0.57,1
Tonk,"1,587",13.0810201,37.89473579999999,0.0,7.39,4.57,0.0,0.0,0.0,0.41,0.44,0.3,0.35,0.2,0.0,0.0,0.62,2
Bundi,"1,234",12.715257199999998,37.82495125,0.0,2.87,9.88,0.0,0.0,0.0,0.66,0.85,0.57,0.67,0.1,0.0,0.0,0.73,2
Bhilwara,"2,125",12.6606885,37.293476500000004,0.0,21.8,12.73,0.0,0.0,0.0,0.46,0.86,0.51,0.97,0.5,0.0,0.0,0.56,1
Rajsamand,"1,310",12.535742550000002,36.94153504999999,0.0,0.0,10.13,0.0,0.0,0.0,0.67,0.69,0.51,0.9,0.0,0.0,0.0,0.69,2
Udaipur,"1,310",12.2927225,36.8562395,0.0,0.0,15.31,0.0,0.63,0.0,0.75,0.68,0.4,0.82,0.2,0.0,0.0,0.45,0
Dungarpur,890,11.920834,36.85733115,0.0,3.0,4.67,0.0,2.0,0.0,0.73,0.54,0.52,0.82,1.0,0.0,0.0,0.71,2
Banswara,"1,278",11.773069699999999,37.21748805,0.0,0.0,16.96,0.0,0.0,0.0,1.24,0.89,0.36,1.04,0.2,0.0,0.0,0.59,0
Chittaurgarh,"1,524",12.44437175,37.313460799999994,0.0,1.0,8.87,0.0,0.0,0.0,0.72,0.72,0.59,0.75,0.67,0.0,0.0,0.59,2
Kota,"1,535",12.6069078,37.93237635,1.82,4.58,13.26,0.0,0.0,0.0,0.68,0.81,0.51,0.63,0.5,0.0,1.0,0.73,0
Baran,"1,398",12.5505719,38.256581849999996,0.0,2.64,3.31,0.0,0.0,0.0,0.76,0.63,0.45,0.43,0.5,0.0,0.0,0.59,2
Jhalawar,"1,375",12.2986747,38.0804919,5.57,2.78,3.97,0.0,0.0,0.0,0.75,0.68,0.47,0.7,0.5,0.0,1.5,0.89,5
Saharanpur,"1,379",14.9835395,38.7755086,0.0,0.0,0.0,0.0,0.0,0.0,0.97,1.0,1.41,1.62,1.0,0.0,0.47,0.9,2
Muzaffarnagar,"1,374",14.73634085,38.85425454999999,0.0,0.0,1.59,2.0,0.0,0.0,0.99,0.9,1.16,1.19,2.0,0.0,0.71,0.83,2
Bijnor,"1,000",14.686221100000001,39.0679236,2.0,0.0,1.0,0.0,0.0,0.0,1.52,1.29,1.32,1.53,1.32,0.5,0.0,0.69,2
Moradabad,"1,051",14.419324050000002,39.3866643,0.0,0.0,1.19,0.0,0.0,0.0,1.53,0.6,0.95,1.34,1.06,0.0,0.0,0.72,2
Rampur,996,14.394652050000001,39.5124758,0.0,0.0,0.0,0.0,0.0,0.0,1.6,0.68,1.14,1.62,0.92,0.0,0.0,1.0,2
Jyotiba Phule Nagar,"1,002",14.38579825,39.1693533,0.0,0.0,0.5,0.0,0.0,0.0,1.25,1.1,1.29,1.8,1.58,1.0,0.0,0.67,2
Meerut,"1,821",14.492230900000001,38.85320685,0.0,1.96,2.55,0.0,0.0,0.0,0.81,0.54,1.12,0.85,0.72,0.0,0.6,0.95,2
Baghpat,"2,310",14.4710809,38.6130726,0.0,0.0,3.55,0.0,0.0,0.0,0.72,0.42,1.51,1.41,3.0,0.0,1.0,0.68,2
Ghaziabad,"2,290",14.33457825,38.726878899999996,0.0,0.0,2.19,0.0,0.0,0.0,0.94,0.77,0.92,0.78,0.25,0.0,0.54,0.68,2
Gautam Buddha Nagar,"2,146",14.179491500000001,38.775381,0.0,0.0,1.14,0.0,0.0,0.0,0.73,0.53,1.13,0.77,0.81,0.0,0.83,0.63,2
Bulandshahar,"1,316",14.2034815,38.9249146,0.0,11.52,11.12,0.0,0.0,0.0,1.17,0.56,0.95,0.77,1.0,0.0,0.0,0.69,1
Aligarh,"1,307",13.948697199999998,39.044006450000005,80.0,12.56,4.2,0.0,0.0,0.0,1.27,0.84,1.04,0.79,1.04,0.0,0.0,0.71,4
Hathras,"1,316",13.8028106,39.02689065,0.0,1.0,0.0,0.0,0.0,0.0,1.15,0.6,1.03,0.82,1.1,0.0,0.0,0.78,2
Mathura,"1,236",13.746206699999998,38.8368365,1.0,4.94,0.5,0.0,0.0,0.0,0.76,0.67,0.57,0.48,0.53,0.0,0.0,0.59,2
Agra,"1,096",13.58833505,39.00403725,6.85,6.2,0.57,0.0,0.0,0.0,0.97,0.59,0.58,0.51,1.01,0.0,0.0,0.59,5
Firozabad,"1,109",13.5795503,39.197878700000004,2.0,6.36,0.0,0.0,0.0,0.0,1.14,0.78,0.79,0.61,1.21,0.0,0.53,0.69,2
Etah,"1,582",13.779375250000001,39.331283500000005,0.0,19.6,1.81,0.0,0.0,0.0,1.27,0.57,0.87,0.78,1.1,0.0,0.0,0.77,1
Mainpuri,819,13.6142493,39.5124758,0.0,2.27,38.64,0.0,0.0,0.0,0.91,0.65,0.56,0.69,0.5,0.0,0.5,0.53,0
Budaun,994,14.0168544,39.56027095,0.0,16.07,4.35,0.0,0.0,0.0,1.3,0.95,1.42,1.6,1.65,0.0,0.5,0.7,1
Bareilly,"1,169",14.183517749999998,39.715219049999995,2.5,0.0,2.0,0.0,0.0,0.0,1.36,0.65,1.11,1.33,1.51,0.0,0.5,0.66,2
Pilibhit,991,14.310396950000001,39.906432450000004,0.5,0.0,0.0,0.0,0.0,0.0,1.29,0.9,1.53,1.01,1.3,0.0,0.5,0.56,2
Shahjahanpur,"1,003",13.941872,39.95612275,0.0,0.0,0.0,0.0,0.0,0.0,1.24,0.77,1.25,1.06,1.22,0.0,0.1,0.57,2
Kheri,896,14.08257,40.3163458,0.0,0.0,2.0,0.0,0.0,0.0,1.56,0.85,1.11,0.99,1.24,2.0,0.0,0.83,2
Sitapur,"1,031",13.79195185,40.333178000000004,0.0,2.9,2.43,0.0,0.0,0.0,2.06,0.57,1.15,1.49,1.97,1.21,0.0,0.77,2
Hardoi,"1,054",13.699317249999998,40.06584635,2.5,0.0,2.03,0.0,0.0,0.0,2.02,0.75,1.22,1.37,1.81,5.0,1.0,0.88,2
Unnao,843,13.269672449999998,40.24390975,0.0,0.0,2.21,0.0,0.0,0.0,1.84,0.73,0.91,1.43,1.72,0.0,1.89,0.72,2
Lucknow,"1,350",13.423346849999998,40.473083,5.0,0.0,0.9,0.0,0.0,0.0,1.97,0.59,0.83,0.97,1.6,0.0,0.42,0.67,2
Rae Bareli,"1,018",13.1172649,40.62043445,2.18,2.31,0.0,0.1,0.32,0.0,2.46,0.83,0.87,0.81,2.04,2.0,0.25,0.43,2
Farrukhabad,"1,076",13.691306299999999,39.7970272,0.0,0.0,0.0,0.0,0.0,0.0,1.27,0.59,0.63,0.82,0.98,0.0,0.0,0.81,2
Kannauj,"1,124",13.525707800000001,39.95683655,0.0,0.0,0.0,0.0,0.0,0.0,1.76,0.71,0.78,0.93,0.5,0.0,0.0,1.11,2
Etawah,981,13.405855800000001,39.5023449,0.0,3.91,1.0,0.0,0.0,0.0,0.88,0.65,0.72,0.46,0.49,0.0,0.69,0.74,2
Auraiya,"1,258",13.231297849999999,39.75487745000001,0.0,3.31,3.0,1.0,0.0,0.0,1.07,0.84,0.72,0.43,0.86,0.0,0.75,0.72,2
Kanpur Dehat,"1,144",13.263353500000001,39.914837150000004,0.0,5.27,1.03,0.0,0.0,0.0,2.48,1.04,0.62,0.7,0.5,0.0,0.21,0.62,2
Kanpur Nagar,"1,400",13.207412249999999,40.116065649999996,0.0,2.45,1.74,0.0,0.0,0.0,2.14,0.76,0.75,0.7,4.67,0.0,0.5,0.93,2
Jalaun,"1,274",13.072932449999998,39.66482825,0.0,0.0,0.0,0.0,0.0,0.0,2.66,1.34,1.35,1.45,1.93,0.0,0.0,0.72,2
Jhansi,"1,393",12.724212849999999,39.284229700000004,0.0,0.0,0.0,0.0,0.0,0.0,1.96,0.93,1.1,1.07,1.44,0.0,0.0,1.07,2
Lalitpur,"1,033",12.343929849999999,39.206010299999996,0.0,0.0,0.0,0.0,0.0,0.0,2.12,1.66,1.75,1.23,1.04,0.0,0.0,1.09,2
Hamirpur,"1,314",12.97740215,40.076313549999995,0.0,0.25,0.42,0.0,0.0,0.0,2.33,0.86,1.14,0.52,1.48,0.0,0.0,0.71,2
Mahoba,951,12.6460482,39.9362084,0.0,0.0,0.0,0.0,0.0,0.0,2.11,1.08,1.15,1.37,1.26,0.0,0.0,0.86,2
Banda,790,12.7398112,40.16901065,0.0,3.47,4.97,0.0,0.0,0.0,1.87,1.1,1.08,1.37,1.53,2.0,0.0,0.44,2
Chitrakoot,"1,038",12.5546846,40.53773285,1.0,3.89,5.0,0.0,0.4,0.0,1.82,0.6,0.89,0.6,1.79,0.0,0.56,0.29,2
Fatehpur,837,12.960036800000001,40.40499705,0.0,0.0,0.0,0.0,0.0,0.0,2.62,1.14,1.03,0.81,0.66,1.0,0.0,0.35,2
Pratapgarh,793,12.9486519,40.972649049999994,2.0,0.0,1.99,0.25,0.0,0.0,2.41,0.51,0.88,0.83,2.48,0.5,0.0,0.61,2
Kaushambi,812,12.680527,40.70158535,0.0,14.2,0.0,0.0,0.0,0.0,1.78,0.82,0.0,0.64,1.95,0.0,0.0,0.55,1
Allahabad,"1,069",12.717900550000001,40.9231555,0.0,2.97,0.0,0.0,0.0,0.0,1.98,0.42,0.4,0.64,2.62,1.0,5.0,0.77,2
Barabanki,815,13.47000005,40.595,1.0,1.0,1.95,0.0,0.0,0.0,2.12,0.74,0.64,1.39,1.93,0.5,0.0,0.5,2
Faizabad,"1,027",13.3866238,41.07208214999999,0.0,0.0,0.5,0.25,0.0,0.0,1.69,0.39,0.35,0.88,4.87,0.25,0.0,0.75,2
Ambedkar Nagar,"1,106",13.2341976,41.34577145,0.0,0.0,3.51,0.0,0.0,0.0,2.35,1.67,0.23,1.56,4.8,0.0,0.0,0.83,2
Sultanpur,"1,146",13.132387849999999,41.03635305,0.0,0.0,6.5,0.0,0.0,0.0,3.16,0.53,1.21,1.24,3.88,1.0,0.0,0.67,2
Bahraich,867,13.78541885,40.799012299999994,0.0,0.0,0.0,0.0,0.0,0.0,2.0,1.03,1.21,1.34,1.99,3.0,0.0,0.62,2
Shrawasti,776,13.798875199999998,40.97674075,0.0,0.0,0.0,0.0,0.0,0.0,2.15,0.97,1.33,0.78,1.42,1.0,0.0,0.73,2
Balrampur,969,13.7148532,41.088400899999996,0.0,0.0,0.0,0.0,0.0,0.0,2.88,0.81,1.1,0.95,2.04,0.0,0.0,1.07,2
Gonda,947,13.56699565,40.9809484,0.0,0.0,1.25,0.0,0.0,0.0,2.53,0.72,0.9,1.1,1.96,0.0,0.0,0.66,2
Siddharthnagar,859,13.635781650000002,41.410486999999996,0.0,0.0,0.0,0.0,0.0,0.0,1.45,0.0,0.91,1.0,3.46,0.0,0.0,0.69,2
Basti,725,13.4088398,41.38165665,0.0,0.0,0.0,0.0,0.0,0.0,1.59,0.5,0.85,1.31,3.99,0.0,0.0,0.73,2
Sant Kabir Nagar,"1,014",13.38358775,41.518068799999995,0.0,0.0,1.0,0.0,0.0,0.0,1.63,0.5,1.59,1.4,3.33,3.77,0.0,0.53,2
Mahrajganj,962,13.57230175,41.78108685,0.0,0.0,0.0,0.0,0.0,0.0,1.53,1.92,1.83,1.83,2.19,1.33,0.0,0.57,2
Gorakhpur,"1,015",13.380277249999999,41.686583750000004,0.0,0.0,0.52,0.0,0.0,0.0,2.86,0.28,0.94,1.59,2.97,1.0,0.0,0.5,2
Kushinagar,"1,010",13.369939350000001,41.9434849,0.0,0.0,0.0,0.0,2.5,0.0,2.34,0.49,1.69,0.5,2.11,1.27,0.0,0.78,2
Deoria,901,13.243118650000001,41.891910700000004,0.0,0.0,4.37,0.0,0.0,0.0,2.95,0.5,1.11,0.0,1.63,1.0,0.0,0.57,2
Azamgarh,873,13.0368522,41.5929729,0.0,0.25,2.28,0.3,0.0,0.0,2.1,0.35,1.96,3.0,3.42,0.0,0.5,0.62,2
Mau,959,12.97481895,41.77932225,0.0,0.0,5.01,5.0,0.0,0.0,2.15,0.0,0.63,1.0,2.96,4.0,0.0,0.68,2
Ballia,933,12.879219050000001,42.07436595,8.0,0.0,13.64,0.1,0.0,0.0,1.88,1.79,1.71,0.75,3.09,1.68,0.79,0.59,0
Jaunpur,966,12.8745017,41.3493501,0.0,0.0,6.71,0.0,0.0,0.0,2.54,0.46,0.4,1.14,3.08,4.0,0.0,0.83,2
Ghazipur,"1,029",12.79202095,41.7885101,0.0,2.83,0.0,0.0,0.0,0.0,2.64,0.85,1.84,0.55,3.78,6.0,0.0,0.74,2
Chandauli,"1,092",12.6302278,41.63313365,0.0,0.0,0.0,0.0,0.0,0.0,2.04,0.62,0.76,0.44,2.81,5.0,0.0,0.56,2
Varanasi,"1,210",12.658822599999999,41.486957200000006,2.46,1.0,0.0,0.0,0.0,0.0,2.96,0.74,1.43,0.81,2.62,1.71,0.39,0.64,2
Sant Ravidas Nagar,843,12.6631865,41.21597025,0.0,7.65,1.0,0.0,0.0,0.0,2.75,1.4,1.51,0.89,2.53,0.25,0.0,0.72,2
Mirzapur,952,12.56684935,41.282217200000005,1.09,9.1,0.0,0.0,0.0,0.0,3.3,0.5,0.97,1.01,2.59,0.0,8.0,0.92,2
Sonbhadra,974,12.34250025,41.534175950000005,0.0,0.0,10.13,0.0,11.81,0.0,2.22,0.7,2.06,1.68,2.06,0.0,0.0,0.6,2
Kashiramnagar,"1,402",13.89397495,39.28387765,0.0,16.2,1.56,0.0,0.0,0.0,1.28,0.78,1.16,0.8,0.92,1.0,0.0,0.62,1
Pashchim Champaran,978,13.52524415,41.8693715,0.0,0.0,5.01,0.0,0.0,0.0,0.98,1.47,1.49,0.0,0.5,0.69,0.32,0.47,2
Purba Champaran,929,13.318719250000001,42.1636461,0.0,3.16,2.39,1.97,0.0,0.0,0.97,0.88,1.31,0.5,0.52,0.98,0.99,0.68,2
Sheohar,750,13.257293599999999,42.647115649999996,0.0,0.0,2.7,0.0,5.0,0.0,1.23,1.48,1.8,1.0,1.0,1.38,0.69,0.62,2
Sitamarhi,684,13.297623800000002,42.74041964999999,0.0,0.78,1.04,0.0,0.0,0.0,0.91,0.87,1.54,1.23,1.34,0.93,0.5,0.26,2
Madhubani,976,13.173427199999999,43.0357737,0.0,0.5,1.44,4.0,0.0,0.0,1.74,0.97,1.23,1.28,0.15,1.11,0.42,0.29,2
Supaul,"1,091",13.06585435,43.305355299999995,0.0,0.0,1.53,0.5,0.0,0.0,0.64,2.24,1.71,1.24,2.0,0.5,0.51,0.21,2
Araria,995,13.06556875,43.722767,0.0,1.0,1.96,0.46,0.0,0.0,1.05,1.38,1.56,0.97,1.02,1.0,1.0,0.69,2
Kishanganj,976,13.0458711,43.9691911,0.0,0.0,2.09,0.0,0.0,0.0,0.91,0.92,1.41,0.96,1.0,1.0,0.0,0.47,2
Purnia,965,12.88856955,43.73762755,0.0,0.0,2.27,0.0,0.0,0.0,1.39,1.81,1.42,0.58,1.04,0.5,0.87,0.36,2
Katihar,946,12.776024000000001,43.78593045,0.0,0.0,2.0,0.0,0.0,0.0,1.11,1.21,1.53,0.52,1.31,1.0,0.75,0.77,2
Madhepura,"1,307",12.964345150000002,43.39548795,0.0,0.0,1.33,0.5,0.0,0.0,1.19,1.78,1.71,1.03,0.5,0.5,0.5,0.29,2
Saharsa,"1,209",12.941748050000001,43.30031245000001,0.0,0.0,3.16,0.0,0.0,0.0,0.99,1.94,1.81,2.0,2.0,0.5,0.0,1.28,2
Darbhanga,889,13.055933999999999,42.948002,0.0,0.0,1.94,0.0,0.0,0.0,1.36,0.97,1.7,1.12,0.0,1.0,0.47,0.3,2
Muzaffarpur,938,13.060443800000002,42.68236004999999,0.0,0.0,4.51,0.0,0.0,0.0,1.65,0.96,1.79,0.0,0.7,1.45,0.52,0.55,2
Gopalganj,888,13.2342736,42.2216659,0.0,0.0,3.11,0.0,0.0,0.0,1.03,1.52,1.46,1.0,1.06,1.96,0.39,0.53,2
Siwan,891,13.10981025,42.17832965,0.0,0.0,2.33,0.0,0.0,0.0,1.6,1.65,1.7,1.0,0.0,1.3,4.86,0.32,2
Saran,"1,007",13.02511165,42.31250995,0.0,2.85,2.49,0.0,0.0,0.0,1.9,1.11,1.7,0.0,1.83,0.82,0.0,0.71,2
Vaishali,"1,320",13.0019089,42.540891249999994,0.0,0.0,1.99,0.0,0.0,0.0,1.85,1.15,2.54,1.5,1.4,3.07,0.31,0.49,2
Samastipur,"1,051",12.931483949999999,42.89051315,0.0,0.0,3.63,0.0,0.0,0.0,1.52,0.93,1.46,1.14,0.3,0.0,0.53,0.28,2
Begusarai,"1,022",12.7083375,43.0646896,0.0,0.0,3.67,0.0,0.0,0.0,1.68,0.69,1.39,1.0,0.25,0.0,0.38,0.3,2
Khagaria,"1,161",12.75557575,43.238454,0.0,0.0,2.48,0.0,0.0,0.0,1.59,1.18,1.57,0.0,1.33,0.0,0.24,0.33,2
Bhagalpur,857,12.62071515,43.4962179,0.0,0.0,10.47,0.0,0.0,0.0,1.92,1.02,1.97,3.84,2.15,1.62,0.99,0.79,2
Banka,929,12.44370895,43.459919,0.0,0.0,3.08,0.0,0.0,0.0,1.79,1.06,1.63,0.93,1.05,2.06,0.61,0.54,2
Munger,749,12.687378050000001,43.236762549999995,0.0,6.0,3.85,0.0,0.0,0.0,2.35,1.01,1.87,5.0,2.3,1.97,1.51,0.33,2
Lakhisarai,989,12.583680699999999,43.04941265,0.0,0.0,1.57,0.0,0.0,0.0,1.36,0.37,1.87,0.5,1.72,2.13,0.74,0.54,2
Sheikhpura,888,12.57084685,42.93144575,0.0,0.0,2.41,0.0,0.0,0.0,1.36,0.63,1.97,0.5,0.62,2.79,0.92,0.61,2
Nalanda,908,12.56203015,42.72973745,0.0,0.0,3.0,0.0,0.0,0.0,1.87,2.56,2.4,0.24,0.52,1.31,0.99,0.61,2
Patna,"1,061",12.79704735,42.56878225,0.0,4.92,4.08,0.0,0.0,0.0,1.86,0.97,2.23,0.99,0.87,1.79,0.83,0.53,2
Bhojpur,810,12.7330775,42.26110945,0.0,10.0,4.78,0.0,0.0,0.0,1.62,1.96,2.0,2.0,1.0,2.12,0.71,0.64,2
Buxar,848,12.78235515,41.988874100000004,0.0,0.0,2.0,0.0,0.5,0.0,1.14,0.37,1.98,1.0,0.99,1.76,1.5,0.41,2
Kaimur (Bhabua),938,12.52131135,41.802786600000005,0.0,0.0,5.0,0.0,0.0,0.0,1.78,0.99,1.96,1.18,1.47,1.71,0.5,0.75,2
Rohtas,831,12.31437025,41.960082799999995,0.0,0.0,2.53,10.0,0.0,0.0,1.14,1.61,2.07,2.0,0.39,1.56,1.59,0.47,2
Jehanabad,"1,001",12.606964349999998,42.49477745000001,0.0,0.0,1.78,0.0,0.0,0.0,1.26,0.97,2.64,0.46,0.5,0.0,0.78,0.49,2
Aurangabad,888,12.37750415,42.18041865,0.0,0.0,3.0,0.0,0.0,0.0,1.35,0.5,2.25,0.91,0.88,1.09,0.5,0.51,2
Gaya,"1,025",12.39772615,42.4997155,0.0,0.0,1.7,0.0,2.1,0.0,1.37,1.72,2.71,0.84,0.89,2.34,0.96,0.49,2
Nawada,"1,024",12.445538749999999,42.7677362,0.0,0.0,3.0,0.0,0.0,0.0,1.22,2.05,2.25,0.31,1.02,0.0,0.0,0.48,2
Jamui,785,12.45975735,43.112359000000005,2.0,0.0,2.85,2.0,0.0,0.0,1.13,1.93,1.85,3.0,1.65,3.96,1.55,0.36,2
Arwal,886,12.622009449999998,42.33310995,0.0,0.0,3.0,0.0,0.0,20.0,1.42,2.53,2.83,0.47,1.48,1.33,0.5,0.67,5
North Sikkim,"1,622",13.911817800000001,44.2782655,0.0,0.0,2.97,2.0,4.0,0.0,1.0,0.87,1.44,0.0,1.7,0.0,0.0,0.25,2
West Sikkim,"1,415",13.680030800000003,43.94784225,0.0,0.0,3.38,1.5,7.98,0.0,0.57,1.13,1.23,1.0,1.57,0.0,0.0,0.39,2
South Sikkim,"1,320",13.65397165,44.066149200000005,0.0,0.0,3.29,0.0,3.81,0.0,0.64,1.01,1.27,0.0,0.57,0.0,0.86,0.3,2
East Sikkim,"2,125",13.6418171,44.2694969,0.0,0.0,2.21,0.0,11.77,0.0,0.76,0.74,1.13,0.64,0.54,0.0,0.8,0.41,2
Tawang,"2,640",13.789033900000002,45.9378711,0.0,0.0,2.63,0.0,5.35,0.0,1.0,1.48,1.99,0.0,1.0,0.0,0.0,0.0,2
West Kameng,"2,511",13.67138165,46.151223,3.0,0.0,11.67,0.0,8.94,0.0,1.17,2.17,1.91,2.0,2.51,0.0,3.35,3.0,2
East  Kameng,"1,660",13.71156305,46.5087856,0.0,0.0,17.91,0.0,33.79,0.0,0.0,1.52,2.94,0.0,3.91,0.0,0.0,0.0,0
Papum Pare,"2,922",13.585950949999999,46.8514501,0.0,0.0,8.15,0.0,0.0,0.0,1.33,1.46,2.22,1.0,1.37,0.0,0.0,0.58,2
Lower Subansiri,"1,509",13.80846745,46.91957785,0.0,0.0,5.01,0.0,14.25,0.0,0.0,2.15,2.22,0.0,2.29,0.0,0.0,0.0,2
Upper Subansiri,"1,858",13.893401,47.16798175,0.0,0.0,8.98,0.0,16.69,0.0,3.5,1.43,2.19,2.0,2.57,0.0,1.0,1.0,2
West Siang,"1,020",14.073626999999998,47.3742259,0.0,0.0,8.73,0.0,12.47,0.0,1.64,0.79,1.25,0.81,1.01,0.0,0.0,0.69,2
East Siang,"1,749",14.054852550000001,47.5716034,0.0,0.0,11.2,0.0,10.0,0.0,1.7,1.53,1.6,1.4,1.15,0.0,0.0,1.23,2
Upper Siang,"2,619",14.37943905,47.61333375,0.0,0.0,3.79,0.0,3.0,0.0,1.61,1.15,1.78,0.0,3.88,0.0,0.0,0.0,2
Dibang Valley,"1,470",14.40643835,48.07634925,0.0,0.0,0.0,0.0,0.0,0.0,0.0,1.54,2.0,0.0,0.0,0.0,0.0,0.0,2
Lohit,"1,008",13.95198255,48.0869558,0.0,0.0,0.0,0.0,0.0,0.0,1.58,1.22,2.39,1.25,2.0,0.0,1.0,0.45,2
Changlang,936,13.565292800000002,47.86711865,0.0,0.0,4.16,0.0,3.0,0.0,1.23,0.86,1.27,1.08,1.06,0.0,2.0,0.31,2
Tirap,812,13.497135149999998,47.77036495000001,5.0,0.0,3.24,0.0,4.85,20.0,1.34,1.95,1.06,2.0,0.81,0.0,0.0,0.31,5
Anjaw,880,13.62843785,47.9679689,0.0,0.0,5.0,0.0,0.0,0.0,0.0,0.0,2.61,0.0,2.0,0.0,0.0,0.0,2
Kurungkumey,"1,024",13.9494839,46.67574315,0.0,0.0,8.83,0.0,19.86,0.0,0.0,1.05,1.79,0.0,0.0,0.0,0.0,0.0,2
Lower Dibang Valley,"1,543",14.0714364,47.9215509,0.0,2.0,6.64,0.0,12.0,0.0,1.98,1.18,1.43,1.19,1.0,0.0,0.0,0.53,2
Mon,"1,781",13.361286999999999,47.5156249,0.0,0.0,7.27,0.0,0.0,0.0,0.0,1.13,1.26,0.0,0.5,0.0,0.0,0.0,2
Tuensang,"1,738",13.1178711,47.40659315,0.0,0.0,5.16,0.0,0.0,0.0,0.5,1.34,1.62,1.0,0.0,0.0,0.0,0.0,2
Mokokchung,"1,586",13.161017900000001,47.256731450000004,0.0,0.0,0.0,0.0,0.0,0.0,1.35,1.1,1.48,0.0,1.0,0.0,0.0,0.0,2
Zunheboto,"1,619",13.00464155,47.26188535,0.0,0.0,3.87,0.0,0.5,0.0,0.5,1.14,1.13,0.0,0.92,0.0,0.0,0.0,2
Wokha,"1,654",13.045517550000001,47.1294869,0.0,0.0,2.54,0.0,0.0,0.0,0.0,1.03,1.19,0.5,0.7,0.0,0.0,0.0,2
Dimapur,"2,226",12.93149425,46.876833149999996,0.0,0.0,7.85,0.0,0.0,0.0,0.0,1.25,1.93,0.0,0.86,0.0,0.0,2.0,2
Kohima,"2,278",12.829298150000001,47.05266535,0.0,0.0,10.74,0.0,0.0,0.0,0.94,1.26,1.32,1.24,0.58,0.0,0.0,0.0,2
Phek,"1,647",12.8497459,47.230615,0.0,0.0,2.04,0.0,0.0,0.0,1.28,0.84,1.04,0.0,0.65,0.0,0.0,0.0,2
Kiphire,"1,704",12.93445425,47.3926706,0.0,0.0,20.0,0.0,0.0,0.0,0.0,1.35,0.91,0.0,1.0,0.0,0.0,0.0,0
Longleng,"1,893",13.245099599999998,47.409832,0.0,0.0,8.41,0.0,5.0,0.0,1.04,0.9,1.19,0.0,0.5,0.0,0.5,0.0,2
Peren,"1,416",12.7562386,46.869532899999996,0.0,0.0,2.31,0.0,0.0,0.0,0.5,1.42,1.21,0.0,0.8,0.0,1.0,0.0,2
Senapati,925,12.6338638,47.01050945,0.0,0.0,0.0,0.0,0.0,0.0,2.0,1.0,0.93,0.52,1.26,1.0,0.0,0.49,2
Tamenglong,"1,397",12.4939671,46.747646,0.0,0.0,0.0,0.0,0.0,0.0,0.95,1.43,1.19,1.18,1.84,1.17,1.5,1.0,2
Churachandpur,"1,324",12.17137425,46.848913200000005,0.0,0.0,1.5,0.0,0.0,0.0,0.48,1.56,1.6,0.46,1.14,0.94,0.72,0.39,2
Bishnupur,"1,133",12.31518015,46.8799144,0.0,0.0,0.0,0.0,0.0,0.0,0.86,0.71,0.77,0.7,0.9,0.67,0.99,0.73,2
Thoubal,"1,394",12.322462150000002,46.999645,0.0,0.0,0.0,0.0,0.0,0.0,0.48,0.5,0.63,0.45,0.88,1.09,0.92,0.63,2
Imphal West,"1,406",12.39139185,46.942947749999995,0.0,0.0,1.24,0.0,90.0,0.0,0.46,0.51,0.53,0.66,0.71,0.88,0.57,0.5,3
Imphal East,"1,349",12.3903268,46.98371855,0.0,0.0,2.0,2.0,0.0,0.0,0.5,0.34,0.71,0.57,0.83,0.66,0.38,0.34,2
Ukhrul,"1,154",12.547692900000001,47.180825799999994,0.0,0.0,0.0,0.0,0.0,0.0,0.83,1.03,0.73,1.0,2.18,3.0,0.0,1.0,2
Chandel,958,12.16310015,47.00030015,0.0,0.0,0.0,0.0,0.0,0.0,1.0,0.77,0.96,1.23,1.89,1.0,0.0,0.0,2
Mamit,"1,404",11.96472205,46.24528535,0.0,0.0,8.61,0.0,0.0,0.0,0.0,0.0,2.77,0.0,0.5,0.0,1.61,1.35,2
Kolasib,"1,803",12.1122825,46.338012549999995,0.0,0.0,3.35,0.0,0.0,0.0,0.0,2.85,2.45,2.0,0.0,0.0,4.0,0.0,2
Aizawl,"2,277",11.8635535,46.358819450000006,0.0,3.0,3.37,0.0,0.0,0.0,0.0,2.3,2.47,2.74,0.96,5.0,1.73,1.37,2
Champhai,"1,563",11.7282854,46.66409645,0.0,0.0,0.0,0.0,0.0,0.0,0.0,0.0,2.37,0.0,1.48,0.0,2.0,0.0,2
Serchhip,"1,351",11.6708289,46.4251151,0.0,0.0,5.96,0.0,0.0,0.0,0.0,0.0,2.26,0.0,1.0,0.0,2.0,0.0,2
Lunglei,"1,514",11.433534550000001,46.3827679,0.0,0.0,6.75,0.0,0.0,0.0,0.0,3.06,2.42,3.42,3.76,0.0,0.0,0.5,2
Lawngtlai,"1,132",11.26422225,46.4463171,0.0,0.0,0.0,0.0,0.0,0.0,0.0,4.09,2.11,0.0,0.25,0.0,0.0,0.0,2
Saiha,"1,119",11.244867,46.489634499999994,0.0,0.0,0.0,0.0,0.0,0.0,0.0,3.0,2.24,1.0,1.7,0.0,0.0,0.0,2
West Tripura,"1,080",11.949841000000001,45.702412450000004,0.0,0.0,2.56,0.0,0.0,0.0,0.55,0.56,1.29,1.01,0.86,0.52,0.33,0.51,2
South Tripura,"1,125",11.61587465,45.77980585,0.0,0.0,0.0,0.0,0.0,0.0,0.54,0.77,1.54,1.34,0.0,0.66,0.0,0.0,2
Dhalai,"1,690",11.9233491,45.9549619,0.0,0.0,0.0,0.0,0.0,0.0,0.75,0.97,1.95,1.0,1.34,0.96,0.0,0.26,2
North Tripura,"1,195",12.039856949999999,46.131519649999994,0.0,0.0,0.0,0.0,0.0,0.0,0.5,1.04,1.64,0.78,0.64,0.63,1.0,0.05,2
West Garo Hills,"1,258",12.7839686,45.1122331,0.0,0.0,3.24,0.0,2.13,0.0,0.76,1.03,2.13,0.65,0.68,0.84,0.66,0.41,2
East Garo Hills,"1,433",12.7835846,45.26289115,0.0,0.0,2.81,0.0,2.0,0.0,1.0,0.83,2.12,6.0,0.81,0.88,3.46,0.43,2
South Garo Hills,"1,389",12.665048449999999,45.2818045,0.0,0.0,1.52,0.0,0.0,0.0,0.95,1.14,2.02,0.0,0.69,1.11,0.0,0.52,2
West Khasi Hills,"1,103",12.78123125,45.644551799999995,0.0,0.0,3.34,0.0,0.0,0.0,1.0,0.76,1.3,1.5,0.0,0.0,0.0,0.35,2
Ri Bhoi,"1,381",12.9215787,45.9928105,0.0,0.0,10.0,0.0,0.0,0.0,1.0,0.64,1.07,0.0,0.5,0.0,0.8,0.29,2
East Khasi Hills,"1,802",12.6840884,45.876940850000004,0.0,0.0,1.41,0.0,0.0,0.0,1.26,1.28,1.32,0.96,1.42,0.0,0.8,0.59,2
Jaintia Hills,"1,196",12.7510636,46.1709435,0.0,0.0,3.22,0.0,0.0,0.0,0.5,0.6,0.76,0.5,0.0,0.0,0.0,0.75,2
Kokrajhar,965,13.200718099999998,45.1333495,0.0,0.0,0.0,0.0,0.0,0.0,0.7,0.96,1.82,0.88,0.86,0.57,0.0,0.5,2
Dhubri,886,13.010349099999999,44.98717315,0.0,0.0,0.0,0.0,0.0,0.0,0.77,1.64,2.0,1.72,0.67,1.04,0.0,0.4,2
Goalpara,"1,240",13.0820671,45.31257705,0.0,0.0,0.0,0.0,0.0,0.0,0.66,1.48,2.04,0.77,0.35,0.0,0.0,0.42,2
Bongaigaon,"1,204",13.250499599999998,45.2676178,0.0,0.0,0.0,0.0,0.0,0.0,0.57,0.8,1.88,0.77,0.25,0.96,0.0,0.33,2
Barpeta,946,13.165210449999998,45.50202735,0.0,0.0,0.0,0.0,0.0,0.0,0.81,1.68,2.34,0.92,1.0,0.77,0.37,0.37,2
Kamrup,"1,034",13.158040949999998,45.79919795,0.0,0.0,0.0,0.0,0.0,0.0,0.6,1.84,2.4,0.95,0.0,0.92,0.0,0.49,2
Nalbari,"1,211",13.22230925,45.72052635,0.0,0.0,0.0,0.0,0.0,0.0,0.84,0.98,1.87,0.78,1.84,0.58,0.0,0.28,2
Darrang,"1,204",13.2261438,46.013659499999996,0.0,0.0,0.0,0.5,0.0,0.0,0.66,0.63,1.73,0.99,0.46,1.11,0.0,0.41,2
Marigaon,976,13.12644265,46.1684775,0.0,0.0,0.0,0.0,0.0,0.0,0.83,0.54,1.44,0.84,0.8,0.5,0.0,0.34,2
Nagaon,"1,001",13.173185649999999,46.3420213,0.0,0.0,1.0,0.0,0.0,0.0,0.66,0.71,1.59,1.55,0.85,1.13,0.9,0.28,2
Sonitpur,"1,043",13.336942550000002,46.42885525,0.0,0.0,3.0,0.0,0.0,0.0,0.76,0.87,2.17,0.71,0.61,0.89,0.0,0.27,2
Lakhimpur,973,13.60317935,47.0756882,0.0,0.0,0.0,0.0,0.0,0.0,0.59,0.69,1.85,1.04,0.51,0.59,0.25,0.37,2
Dhemaji,"1,006",13.740555300000002,47.278642350000005,0.0,0.0,0.0,0.89,0.0,0.0,0.73,0.88,1.66,0.77,0.54,0.51,0.0,0.2,2
Tinsukia,"1,100",13.746095449999999,47.6733875,0.0,0.0,0.0,0.0,0.0,0.0,0.82,1.34,1.99,1.72,1.43,0.0,0.0,0.46,2
Dibrugarh,"1,055",13.736416349999999,47.45598105,0.0,0.0,0.0,0.0,0.0,0.0,1.13,1.66,1.9,2.01,1.23,0.0,0.0,0.54,2
Sibsagar,"1,114",13.4913049,47.32122605,0.0,0.0,0.0,0.0,0.0,0.0,0.85,0.69,1.76,0.93,0.89,0.0,1.78,0.39,2
Jorhat,"1,108",13.373260149999998,47.10129295,0.0,0.0,0.0,0.0,0.0,0.0,0.97,1.05,1.51,1.38,0.99,1.48,0.0,0.33,2
Golaghat,998,13.261925750000001,46.9811685,0.0,0.0,0.0,0.0,0.0,0.0,0.76,0.53,1.61,0.92,0.86,0.97,0.54,0.31,2
Karbi Anglong,884,13.093042500000001,46.790634600000004,0.0,0.0,0.29,0.0,0.0,0.0,1.39,0.87,1.67,1.3,0.88,0.0,1.0,0.0,2
North Cachar Hills,943,12.673900199999999,46.5087856,0.0,0.0,0.25,0.0,0.0,0.0,0.0,1.27,1.83,0.5,0.65,0.5,0.0,0.0,2
Cachar,917,12.39106265,46.42885525,0.0,0.0,0.0,0.0,0.0,0.0,0.98,0.68,1.55,0.6,0.83,0.5,0.0,0.0,2
Karimganj,880,12.4324564,46.17957655,0.0,0.0,0.0,0.0,0.0,0.0,1.0,0.74,1.87,1.79,0.0,0.0,0.0,0.1,2
Hailakandi,810,12.3405509,46.28190275,0.0,0.0,0.0,0.0,0.0,0.0,0.94,0.85,1.86,2.0,0.5,0.0,0.0,0.23,2
Chirag,"1,166",13.26933095,45.3469561,0.0,0.0,0.0,0.0,0.0,0.0,0.94,0.85,2.35,1.21,0.0,0.96,0.2,0.25,2
Baksa,825,13.3310736,45.678887450000005,0.0,0.0,0.0,0.0,0.0,0.0,0.38,1.02,2.0,0.82,1.0,0.79,0.0,0.25,2
Guwahati,"1,952",13.07225845,45.86811825,0.0,0.0,0.0,0.0,0.0,0.0,0.73,1.17,1.83,0.78,0.77,1.0,0.0,0.88,2
Udalguri,"1,094",13.373008849999998,46.04797145,0.0,0.0,0.0,0.0,0.0,0.0,0.52,0.86,1.92,0.71,0.39,0.53,0.0,0.28,2
Darjiling,"1,618",13.5180033,44.13133755,0.0,0.0,1.57,1.0,0.0,0.0,0.51,0.59,1.17,1.01,0.46,0.0,0.0,0.3,2
Jalpaiguri,"1,068",13.271738599999999,44.360262799999994,0.0,0.0,1.73,0.75,0.0,0.0,0.68,0.62,1.3,0.96,0.77,0.84,0.0,0.29,2
Koch,973,13.167843050000002,44.7229255,0.0,0.0,0.5,0.0,0.0,0.0,0.0,0.65,1.19,0.74,0.68,0.67,0.0,0.35,2
Uttar Dinajpur,"1,023",12.990519650000001,44.0254895,0.0,0.0,0.62,0.0,0.0,0.0,0.87,0.69,1.34,0.64,0.97,0.79,1.0,0.44,2
Dakshin Dinajpur,"1,060",12.685765400000001,44.2782655,0.0,0.0,0.0,0.8,0.0,0.0,1.01,0.45,0.93,0.56,0.67,0.61,1.0,0.24,2
Maldah,987,12.58928865,44.123059149999996,0.25,0.0,0.0,0.0,0.0,0.0,1.95,0.59,0.98,0.8,1.3,1.06,0.5,0.25,2
Murshidabad,999,12.087951949999999,44.14008925,0.0,0.0,4.0,0.3,0.0,0.0,0.31,0.47,1.33,0.48,0.73,1.05,0.28,0.38,2
Birbhum,"1,070",12.17875115,43.92134835,0.0,0.0,1.9,0.0,0.0,0.0,0.53,0.54,1.28,0.54,0.75,1.1,0.46,0.3,2
Barddhaman,"1,200",11.616210699999998,43.93073965,0.0,0.0,0.2,0.0,0.0,0.0,1.08,0.53,1.22,0.57,0.35,0.32,1.07,0.49,2
Nadia,"1,062",11.35295525,44.376503799999995,0.0,0.0,0.0,0.3,0.0,0.0,0.83,0.4,1.26,0.33,0.37,0.44,0.39,0.21,2
North Twenty Four Parganas,"1,694",11.30840495,44.2014475,0.0,0.0,0.53,0.0,0.0,0.0,0.8,0.76,1.54,0.46,0.46,0.66,0.6,0.26,2
Hugli,"1,110",10.879549,43.881708950000004,0.0,0.0,0.0,0.0,0.0,0.0,0.96,0.45,1.11,0.41,0.38,0.29,0.38,0.2,2
Bankura,"1,051",11.616207300000001,43.53930220000001,0.0,0.0,5.0,0.0,0.0,0.0,0.75,0.69,1.17,0.82,0.46,0.41,0.5,0.37,2
Puruliya,907,11.666038949999999,43.182604,0.0,0.0,3.95,0.0,0.0,0.0,1.08,0.62,1.05,0.57,0.6,0.28,0.47,0.25,2
Pashim,"1,063",11.2040188,43.69053635,0.0,0.0,0.0,0.0,0.0,0.0,1.75,1.01,1.57,0.89,0.82,1.55,0.0,0.56,2
Howrah,"1,573",11.29788445,44.1318197,0.0,0.5,0.0,0.5,0.0,0.0,1.04,0.76,1.72,0.55,0.58,1.32,0.46,0.52,2
Kolkata,"2,764",11.286323,44.1819475,0.0,0.0,1.91,0.0,0.0,6.0,0.82,0.7,1.15,0.42,0.56,0.75,0.37,0.33,2
South Twenty Four Parganas,"1,274",11.0676189,44.20080205,0.5,0.0,0.46,0.5,0.0,0.0,0.93,0.85,1.62,0.6,0.47,1.94,0.36,0.26,2
Purba Midanapur,"1,085",10.968643949999999,43.88816665,0.0,0.0,0.0,0.0,0.0,0.0,1.84,0.81,1.24,0.24,0.83,1.03,1.22,0.45,2
Garhwa,"1,032",12.077449099999999,41.899780850000006,5.0,0.0,5.5,0.0,0.0,0.0,1.64,1.1,1.3,1.45,1.0,1.0,1.03,0.61,2
Palamu,914,12.064305300000001,42.09285575,0.0,2.0,8.32,0.0,0.0,0.0,2.07,0.84,1.57,0.64,3.0,1.01,1.2,0.86,2
Chatra,824,12.103254150000001,42.4362142,0.0,0.0,2.65,0.0,0.0,0.0,1.56,0.76,1.31,0.89,0.2,1.27,1.22,0.51,2
Hazaribagh,"1,014",11.99831065,42.6845534,0.0,0.0,2.0,0.0,0.0,0.0,1.85,1.11,1.55,1.04,0.5,0.65,0.62,0.41,2
Kodarma,993,12.23384025,42.79668225,0.0,0.0,0.0,0.0,0.0,0.0,1.21,0.73,1.23,0.85,1.0,0.0,0.52,0.65,2
Giridih,949,12.09106955,43.143475349999996,0.0,0.0,4.38,0.0,0.0,0.0,1.24,0.66,0.9,0.71,0.52,0.94,0.43,0.55,2
Deoghar,"1,055",12.23816005,43.3456611,0.0,0.0,5.34,0.0,0.0,0.0,1.47,1.29,1.51,0.25,0.0,0.0,1.27,0.48,2
Godda,868,12.41276075,43.60675885,0.0,0.0,3.53,0.0,0.0,0.0,1.36,0.69,0.96,2.0,0.6,1.0,1.14,0.46,2
Sahibganj,772,12.619060800000002,43.8226796,0.0,0.0,2.05,0.0,0.0,0.0,0.77,1.0,1.02,0.0,0.0,0.0,0.29,0.34,2
Pakaur,699,12.3168454,43.925032200000004,0.0,0.0,4.57,0.0,0.0,0.0,0.96,1.14,1.74,0.0,0.92,1.0,0.5,0.34,2
Dumka,802,12.1427332,43.62096495000001,0.0,0.0,4.72,0.0,0.0,0.0,1.2,1.56,1.28,0.0,0.62,0.0,0.95,0.59,2
Dhanbad,"1,223",11.897826550000001,43.21519295,0.0,0.0,0.0,0.0,0.0,0.0,1.5,0.61,1.09,0.54,0.45,0.0,0.52,0.37,2
Bokaro,942,11.8346478,43.075556,0.0,0.0,4.69,0.0,0.0,0.0,1.53,0.76,1.07,0.76,0.51,0.0,0.55,0.45,2
Ranchi,"1,266",11.67204985,42.654781,0.0,0.0,3.48,0.0,0.0,0.0,1.42,0.73,1.4,1.6,1.0,0.0,0.81,0.59,2
Lohardaga,958,11.720466250000001,42.3422608,0.0,0.0,3.48,0.0,0.0,0.0,1.65,1.23,1.32,2.37,3.0,0.0,0.4,0.67,2
Gumla,916,11.52206475,42.268972749999996,0.0,0.0,5.22,0.0,0.0,0.0,1.71,1.41,0.9,1.48,0.0,0.5,0.0,1.5,2
Pashchimi Singhbum,796,11.1825429,42.7187787,0.0,0.0,0.0,0.0,0.0,0.0,1.22,0.76,1.65,0.56,0.55,1.07,0.5,0.69,2
Purbi Singhbum,"1,228",11.2433378,43.2498273,0.0,0.0,0.67,0.25,0.0,0.0,1.43,1.07,1.72,0.62,0.81,0.0,0.65,0.57,2
Latehar,"1,028",11.87316075,42.254555100000005,10.0,0.0,8.66,0.0,0.0,0.0,1.72,1.0,1.41,1.07,4.7,1.48,0.0,0.73,5
Simdega,920,11.3075569,42.24799925,0.0,8.0,2.5,0.0,0.0,0.0,1.52,1.0,1.49,2.17,1.0,0.5,1.02,0.56,2
Jamtara,862,11.975274800000001,43.4085066,0.0,0.0,4.02,0.0,0.0,0.0,1.15,0.65,1.32,1.93,0.75,0.0,0.49,0.51,2
Seraikela-kharsawan,884,11.3511673,42.96394965,0.0,0.0,0.0,0.0,0.0,0.0,1.35,0.94,1.26,1.06,0.54,0.0,0.95,0.61,2
Bargarh,790,10.671291949999999,41.8121005,0.0,0.0,1.5,2.0,0.0,0.0,1.29,1.48,0.72,0.63,0.38,0.5,0.74,0.44,2
Jharsuguda,"1,009",10.92771875,42.00308305,0.0,0.0,3.0,0.0,0.0,0.0,1.8,1.75,1.2,0.99,0.64,1.0,0.0,0.62,2
Sambalpur,"1,122",10.7334358,41.99058325,0.0,0.0,0.0,0.0,0.0,0.2,1.58,1.21,0.89,0.66,0.68,0.0,1.0,0.66,2
Debagarh,676,10.769156800000001,42.3644721,0.0,0.0,0.0,0.0,0.0,0.0,1.01,1.03,1.12,0.49,0.49,0.58,0.5,0.52,2
Sundargarh,923,11.06200125,42.0215875,0.0,0.0,0.0,0.0,0.0,0.0,1.56,0.9,0.8,1.04,0.49,1.09,1.0,1.03,2
Kendujhar,748,10.8144665,42.790842350000005,0.0,0.0,0.0,1.5,0.0,0.0,1.17,0.86,0.81,0.72,0.63,0.0,0.0,0.68,2
Mayurbhanj,653,11.0043489,43.209365399999996,0.0,0.0,1.83,0.0,0.0,0.0,1.35,1.0,0.75,1.04,0.69,0.0,1.0,0.65,2
Baleshwar,"1,016",10.74346685,43.46230025,0.0,0.0,2.5,0.0,0.0,0.0,0.95,1.2,0.74,0.72,0.63,0.5,0.3,0.65,2
Bhadrak,870,10.52913685,43.2479198,0.5,0.0,0.0,0.0,0.0,0.0,1.57,1.11,0.99,1.15,0.77,0.5,0.25,0.49,2
Kendrapara,976,10.248455400000001,43.214426700000004,1.0,0.0,0.0,0.0,0.0,0.0,1.27,2.04,0.99,0.77,0.41,0.0,0.0,0.47,2
Jagatsinghapur,917,10.0987914,43.16883805,0.0,0.0,0.0,0.0,0.0,0.0,1.52,1.78,1.12,1.02,0.48,0.0,0.0,0.36,2
Cuttack,"1,049",10.2312605,42.941494750000004,0.5,0.0,0.0,0.0,0.0,0.0,1.4,1.49,0.89,0.88,0.55,0.0,0.5,0.54,2
Jajapur,"1,029",10.417050949999998,43.1663029,0.0,0.0,0.0,0.0,0.0,0.0,1.45,1.47,1.05,0.77,0.72,0.0,0.5,0.39,2
Dhenkanal,"1,047",10.32517275,42.7986109,0.0,0.0,0.0,0.0,0.0,0.0,1.37,1.21,1.31,1.2,0.82,2.0,0.0,0.5,2
Anugul,"1,297",10.42220165,42.5755409,0.0,0.0,0.0,0.0,0.0,0.0,1.2,1.11,1.34,0.68,0.42,0.25,0.0,0.36,2
Nayagarh,985,10.061566599999999,42.5519213,0.0,0.0,0.0,0.0,0.0,1.3,1.08,1.85,0.44,0.94,0.47,0.0,0.38,0.45,2
Khordha,"1,284",10.0967276,42.81660465,0.0,0.0,0.5,0.0,0.0,0.0,1.59,1.42,0.67,0.64,0.86,0.0,0.0,0.53,2
Puri,951,9.9066911,42.915732750000004,0.0,0.0,0.0,0.0,0.0,0.0,1.45,1.22,0.76,0.88,0.53,0.5,0.25,0.44,2
Ganjam,"1,009",9.693694500000001,42.52577065,0.0,0.0,0.0,0.0,0.0,3.04,1.72,1.36,0.87,0.84,0.79,0.0,0.0,0.38,2
Gajapati,733,9.59561105,42.09285575,5.0,9.5,9.65,0.0,0.0,5.45,1.6,0.61,1.5,0.57,0.5,0.25,0.0,0.34,5
Kandhamal,702,10.2398554,42.11657425,0.0,0.0,3.86,0.0,0.0,3.73,2.11,1.1,0.5,1.05,0.64,0.0,0.0,0.49,2
Baudh,612,10.414223,42.163565250000005,0.0,0.0,0.0,0.0,0.0,6.22,1.23,1.42,1.95,0.77,0.78,0.53,0.5,0.78,2
Sonapur,809,10.42400705,41.9475021,0.0,0.0,0.0,0.0,0.0,0.0,1.41,0.86,0.67,0.75,0.63,0.0,0.75,0.51,2
Balangir,839,10.3537117,41.74213625,0.0,0.0,0.0,0.0,0.0,0.0,1.08,0.92,0.82,0.89,0.32,2.0,0.5,0.53,2
Nuapada,653,10.4030092,41.268069649999994,0.0,0.0,1.34,0.0,0.0,1.4,1.83,1.27,1.07,1.38,1.07,0.0,0.0,0.85,2
Kalahandi,654,9.95686815,41.58245005,0.0,0.0,1.0,0.0,0.0,0.0,1.36,1.33,1.36,1.31,0.77,2.95,0.0,0.54,2
Rayagada,807,9.5856045,41.70816129999999,0.0,0.0,0.1,0.0,6.0,0.0,1.2,1.1,0.66,1.45,0.0,0.0,0.0,0.5,2
Nabarangapur,751,9.614071699999998,41.273494899999996,0.0,0.0,1.71,2.0,0.0,0.0,1.47,0.94,1.4,0.35,0.52,2.39,4.0,0.48,2
Koraput,698,9.4067435,41.35616635,0.0,0.0,0.0,0.0,2.81,2.06,1.54,1.56,0.8,2.41,0.0,1.41,0.0,0.25,2
Malkangiri,607,9.171793150000001,40.94126395000001,0.0,0.0,1.5,0.0,0.0,0.0,1.59,1.08,1.67,0.5,2.0,2.0,0.0,0.56,2
Koriya,816,11.69377495,41.194289149999996,0.0,0.0,1.09,0.25,0.0,0.0,1.17,0.46,1.12,0.51,0.31,0.87,0.23,0.28,2
Surguja,868,11.47470395,41.58245005,0.5,0.0,2.02,0.1,2.15,0.43,1.39,0.42,1.26,1.08,0.46,1.02,0.67,0.42,2
Jashpur,"1,011",11.443710099999999,42.0691184,1.43,0.0,2.11,0.0,1.99,0.5,1.4,1.47,1.6,2.04,0.66,1.08,0.25,0.63,2
Raigarh,853,10.94753465,41.6800283,0.0,0.0,0.0,0.0,0.0,0.0,2.15,1.65,0.52,1.08,1.0,2.61,0.5,0.58,2
Korba,878,11.17972505,41.375029749999996,0.0,0.0,1.0,0.0,0.0,0.0,2.45,0.89,1.41,1.07,0.0,2.89,1.0,1.01,2
Janjgir,869,10.985276449999999,41.23763785,0.0,0.0,0.0,0.0,0.0,0.0,2.29,1.14,1.13,0.8,0.0,3.46,0.0,0.81,2
Bilaspur,989,11.03157245,41.0342773,0.0,0.0,0.0,0.0,0.0,0.0,2.53,1.51,1.03,0.98,1.12,2.6,0.0,0.77,2
Kawardha,812,11.004475300000001,40.6121722,0.0,0.0,0.0,0.0,0.0,0.0,3.73,2.0,1.69,0.4,0.38,1.65,0.0,0.73,2
Rajnandgaon,829,10.548551699999999,40.515111100000006,0.0,0.0,0.0,0.0,0.0,0.0,3.6,0.41,1.5,0.66,0.4,1.81,0.0,0.94,2
Durg,956,10.5952247,40.64245845000001,0.0,0.0,0.0,0.0,0.0,0.0,3.61,0.37,0.91,1.43,0.4,2.9,0.25,0.55,2
Raipur,839,10.6256922,40.814820649999994,0.0,0.0,0.0,0.0,0.0,0.0,2.83,0.83,0.8,1.21,0.45,1.8,0.73,0.87,2
Mahasamund,"1,012",10.55456585,41.04895114999999,0.0,0.0,5.02,0.0,0.0,0.0,2.1,2.03,1.76,1.68,0.0,1.72,0.5,0.86,2
Dhamtari,850,10.350749949999999,40.77707895,0.0,0.0,0.0,0.0,0.0,0.0,2.29,0.54,1.27,1.61,1.26,1.73,0.0,0.79,2
Kanker,823,10.1363566,40.74415485,0.0,0.0,9.0,0.0,8.81,0.0,1.99,1.53,0.98,1.22,0.25,1.33,1.78,0.74,2
Bastar,729,9.601838449999999,40.96719275,3.0,0.0,4.45,0.0,5.54,0.0,1.7,0.96,1.82,1.44,0.94,1.67,0.0,0.62,2
Dantewada*,"1,113",9.4484315,40.67272085,0.0,0.0,9.14,0.0,5.03,0.0,3.29,1.03,1.87,1.53,1.12,1.33,0.0,0.94,2
Narayanpur,500,10.91458945,40.942665149999996,0.0,0.0,3.51,0.0,5.24,1.5,1.61,1.37,1.43,1.62,1.68,0.84,0.1,0.5,2
Bijapur,"1,616",9.38800255,40.1574189,0.0,0.0,0.0,0.0,10.0,0.0,1.49,0.42,0.58,1.04,0.0,2.06,0.0,0.51,2
Sheopur,988,12.83641,38.348065250000005,1.94,15.92,0.0,0.0,0.0,0.0,1.01,0.58,0.7,0.63,0.0,0.0,0.0,0.57,1
Morena,922,13.246678099999999,38.99549745,0.0,3.82,0.0,0.0,0.0,0.0,1.29,0.69,0.72,0.87,0.79,0.0,0.0,0.78,2
Bhind,883,13.2793677,39.3936438,5.0,7.36,0.0,0.0,0.0,0.0,1.42,0.76,0.73,0.78,0.5,0.0,0.0,0.68,5
Gwalior,"1,616",13.109143550000002,39.091415399999995,0.0,7.27,0.25,0.0,0.0,0.0,1.14,0.52,0.5,0.45,0.58,0.0,0.0,0.66,2
Datia,"1,026",12.8326631,39.230469649999996,0.0,3.0,0.0,0.0,0.0,0.0,1.33,0.7,0.87,0.97,0.64,0.0,0.0,0.77,2
Shivpuri,"1,064",12.717893449999998,38.832533000000005,5.0,0.0,7.5,0.0,4.0,0.0,1.02,0.77,0.75,1.5,0.91,0.0,0.0,0.77,2
Guna,"1,088",12.317409849999999,38.6489891,0.0,0.0,3.3,1.0,1.0,0.0,1.06,0.82,0.78,0.98,0.5,0.0,1.0,0.74,2
Tikamgarh,"1,205",12.37280735,39.41603895000001,0.0,0.0,0.0,0.0,0.0,0.0,0.92,0.94,1.42,1.56,1.0,0.0,0.0,0.88,2
Chhatarpur,"1,481",12.4581781,39.79059135,0.0,1.0,0.0,0.0,0.0,0.0,1.18,1.35,0.96,1.63,0.77,0.0,1.5,0.93,2
Panna,895,12.35901555,40.0909634,0.0,0.0,0.0,0.0,0.0,0.0,2.36,1.17,0.46,0.69,0.75,2.06,0.0,0.69,2
Sagar,"1,132",11.919402499999999,39.3689034,0.25,0.0,0.25,0.0,0.0,0.0,2.05,1.08,1.68,1.08,1.69,2.0,0.97,0.82,2
Damoh,"1,228",11.919049300000001,39.721086549999995,0.0,0.0,0.0,0.0,0.0,0.0,2.69,1.13,1.18,0.94,0.0,0.0,0.5,1.04,2
Satna,729,12.300253750000001,40.416121399999994,0.0,0.0,0.0,0.0,0.0,0.0,2.1,0.57,0.53,0.5,1.35,2.57,0.98,0.62,2
Rewa,840,12.26864635,40.65209,0.0,1.0,0.0,0.0,0.0,0.0,2.44,1.44,1.09,0.88,1.2,1.61,0.0,0.88,2
Umaria,743,11.76548985,40.414737349999996,0.0,0.0,0.0,0.0,0.0,0.0,2.31,0.61,1.07,1.33,0.0,1.01,0.0,0.36,2
Shahdol,697,11.65109425,40.67840105,0.0,0.0,0.0,0.0,0.0,0.0,2.96,0.82,1.76,1.04,2.0,2.0,0.0,0.48,2
Sidhi,842,12.1978019,40.94126395000001,0.0,0.0,3.0,0.0,0.0,0.0,3.16,0.5,1.81,1.07,1.0,0.0,0.0,0.86,2
Neemuch,979,12.2381926,37.4312046,0.0,0.0,8.53,0.0,0.0,0.0,0.88,0.5,0.7,0.87,0.2,0.0,0.0,0.54,2
Mandsaur,"1,304",12.038418,37.5346476,0.0,0.0,13.13,0.0,0.0,0.0,1.02,0.68,0.78,0.84,0.32,0.0,0.0,0.64,0
Ratlam,"1,121",11.667084800000001,37.51881625,0.0,0.0,21.77,0.0,0.0,0.0,1.1,0.82,0.8,1.14,0.88,0.0,0.0,0.82,0
Ujjain,"1,333",11.589650650000001,37.89245485,0.0,0.0,5.47,0.0,0.65,0.0,1.37,0.68,0.43,0.68,0.0,0.0,2.0,0.58,2
Shajapur,"1,175",11.7136469,38.13649195,13.04,2.0,20.92,0.0,0.0,0.0,1.32,0.83,0.92,1.12,0.5,0.0,0.25,0.73,0
Dewas,"2,039",11.4811336,38.02539745,10.27,3.0,7.1,0.0,0.0,0.0,1.34,0.7,0.74,0.34,1.84,0.0,0.0,0.85,5
Jhabua,"1,319",11.384833,37.29604605,0.0,1.0,39.1,0.0,0.0,0.0,1.23,0.65,0.87,1.1,0.65,0.0,0.0,1.26,0
Dhar,"1,569",11.3006461,37.65123275,7.21,28.29,16.36,0.0,0.0,0.0,2.78,1.64,1.29,1.51,0.74,0.0,0.0,0.91,1
Indore,"1,568",11.35978435,37.9288629,17.04,3.0,5.04,0.0,0.0,0.0,2.53,1.25,0.91,0.85,0.89,0.0,1.0,1.0,5
West Nimar,898,10.951435,37.903454100000005,18.89,1.0,5.73,0.0,0.0,0.0,2.72,1.26,0.69,1.04,0.0,0.0,0.0,0.8,5
Barwani,"1,034",11.01815785,37.4516695,45.67,9.87,13.79,1.0,0.0,0.0,2.52,1.13,0.9,1.85,0.0,0.0,0.0,0.68,4
East Nimar,918,10.940126300000001,38.3206356,9.0,30.0,8.04,0.0,0.0,0.0,2.38,1.3,0.76,0.83,0.0,0.0,0.5,0.71,1
Rajgarh,"1,326",12.003940949999999,38.36394015,5.92,0.0,6.6,0.0,0.54,0.0,1.1,0.81,1.08,0.71,1.17,0.0,0.0,0.69,2
Vidisha,"1,099",11.762555099999998,38.90406815,0.0,0.0,0.0,0.0,0.0,0.0,1.54,1.0,0.71,0.96,1.07,1.0,0.0,0.96,2
Bhopal,"2,316",11.62996665,38.7063075,0.0,0.0,0.0,0.0,0.0,0.0,2.26,0.93,1.04,0.81,0.49,0.0,0.0,1.22,2
Sehore,"1,170",11.602506,38.542539049999995,0.0,0.0,2.33,0.0,0.0,0.0,1.62,0.81,0.81,0.75,0.89,0.0,1.0,0.6,2
Raisen,"1,477",11.66636645,38.89119865,0.0,2.0,1.0,0.0,0.0,0.0,1.69,0.86,1.05,0.87,1.64,0.0,1.5,0.91,2
Betul,692,10.955401550000001,38.9505921,13.1,0.0,22.23,0.0,0.0,0.0,1.81,1.42,1.56,0.67,1.0,0.0,2.13,0.41,0
Harda,"1,090",11.167772300000001,38.54980425,0.0,0.0,0.0,0.0,0.0,0.0,2.25,1.56,1.0,0.65,1.0,0.0,0.0,0.58,2
Hoshangabad,"1,204",11.372053999999999,38.8684835,10.0,0.0,0.0,0.0,0.0,0.0,2.35,1.09,0.68,0.25,0.25,0.0,0.0,1.03,5
Katni,"1,427",11.91542265,40.20361275,0.0,0.0,0.0,0.0,0.0,0.0,4.48,1.37,2.37,0.89,1.0,0.0,0.0,0.75,2
Jabalpur,"1,398",11.5907335,39.99320355,0.0,0.0,0.0,0.0,5.53,0.0,2.79,0.68,2.05,0.57,0.42,0.0,0.0,0.55,2
Narsimhapur,"1,421",11.473278500000001,39.597176700000006,0.0,0.0,0.1,0.0,0.0,0.0,3.05,0.61,0.66,1.38,0.0,0.0,2.0,1.15,2
Dindori,666,11.47089655,40.538422749999995,1.0,0.0,1.0,0.0,0.0,0.0,1.2,1.2,2.42,0.73,0.5,0.0,0.0,0.43,2
Mandla,715,11.298960899999999,40.18569275,0.5,0.0,4.53,0.0,0.0,1.0,1.54,0.69,1.53,0.57,1.26,0.5,1.9,0.59,2
Chhindwara,800,11.0287185,39.469086450000006,10.51,0.0,22.18,0.0,0.0,0.0,1.93,1.06,1.08,0.76,1.66,1.5,0.0,0.61,0
Seoni,790,11.04343455,39.77174204999999,0.0,0.0,1.6,0.0,0.0,0.0,1.86,1.21,1.0,0.83,1.61,5.0,0.5,0.78,2
Balaghat,794,10.906438,40.09191465,0.0,0.0,0.0,0.0,0.0,0.0,1.96,0.42,0.5,0.91,1.21,0.0,0.0,0.53,2
Ashoknagar,"1,579",12.288757400000001,38.86592475,0.0,0.0,0.0,2.0,0.0,0.0,1.13,0.8,0.97,1.48,1.0,0.0,0.0,0.71,2
Anuppur,825,11.5568277,40.8488145,0.0,0.0,0.0,0.0,0.0,0.0,2.97,0.58,1.71,1.06,0.0,0.0,0.0,0.44,2
Burhanpur,"1,146",11.6049951,40.9784455,0.0,0.0,3.21,0.0,0.0,0.0,2.45,1.17,0.77,0.0,0.5,0.0,0.0,0.69,2
Alirajpur,814,11.152737400000001,37.17271325,0.0,0.0,44.22,0.0,0.0,0.0,1.23,1.7,0.77,2.3,0.25,0.0,0.0,0.62,0
Singrauli,922,12.099490600000001,41.3217257,0.0,0.0,0.0,0.0,0.0,0.0,2.93,1.23,1.36,1.76,0.9,1.4,0.0,0.78,2
Kachchh,"2,286",11.8668663,34.9298703,6.1,15.35,47.87,0.0,0.0,0.0,0.75,1.67,0.5,0.33,0.25,0.0,1.79,0.95,0
Banas,"1,447",12.15351445,36.1757309,0.0,35.13,26.96,0.0,0.0,0.0,0.74,1.18,0.25,0.48,0.53,0.5,0.0,0.6,1
Patan,"1,316",11.924662300000001,36.06331275,38.29,29.82,0.0,0.0,0.0,0.0,0.79,1.05,1.0,0.73,0.56,0.0,0.0,0.68,4
Mahesana,"1,695",11.79398035,36.184662599999996,23.55,16.79,13.04,0.0,0.0,0.0,0.68,0.74,0.39,0.44,0.5,0.0,0.5,0.62,1
Sabar,"1,198",11.9238352,36.49664845,5.0,5.38,18.42,0.0,0.0,0.0,1.69,0.95,0.56,0.99,0.58,0.0,0.0,0.5,0
Gandhinagar,"1,726",11.6078177,36.31847075,5.86,7.56,1.35,5.0,0.5,0.0,1.35,1.63,1.0,0.51,0.47,0.0,0.64,0.6,5
Ahmadabad,"2,228",11.5112525,36.285681049999994,1.05,3.43,0.89,0.5,0.31,0.0,1.55,1.16,0.86,0.53,0.6,0.0,0.74,0.74,2
Surendranagar,"1,669",11.36006595,35.824768,4.78,25.09,0.2,0.0,0.0,0.0,1.08,1.98,0.0,0.43,0.33,0.0,0.25,0.85,1
Rajkot,"2,240",11.151947250000001,35.40107995,1.58,4.77,0.0,2.0,0.0,0.0,1.02,0.86,0.18,0.52,0.32,1.25,0.22,0.86,2
Jamnagar,"1,473",11.235350949999999,35.028865,9.47,8.6,1.67,2.0,0.0,0.0,1.02,1.0,0.36,0.47,0.25,0.0,0.57,0.58,5
Porbandar,"1,392",10.82085345,34.814632700000004,11.94,12.92,2.63,10.0,0.0,0.0,0.87,1.06,0.29,0.54,0.2,0.1,1.12,0.49,5
Junagadh,"1,921",10.761092,35.2289384,0.6,6.96,2.0,2.0,0.0,0.0,0.96,0.9,0.35,0.44,0.35,0.0,0.5,0.95,2
Amreli,"1,475",10.801588699999998,35.6110416,2.15,9.28,0.25,0.0,0.25,0.0,0.91,0.74,0.36,0.57,0.11,0.0,0.0,0.6,5
Bhavnagar,"1,581",10.88223625,36.0759652,2.0,11.9,1.11,0.0,0.5,0.0,0.99,0.65,0.5,0.44,0.34,0.0,0.39,0.4,5
Anand,"1,244",11.282258749999999,36.4644355,2.47,12.43,9.8,12.0,0.0,0.0,1.93,0.98,0.56,0.93,0.43,0.0,0.0,0.55,1
Kheda,"1,001",11.3753255,36.342332899999995,0.5,9.77,3.97,3.0,0.0,0.0,1.98,1.25,0.87,0.78,0.45,0.0,0.0,0.55,2
Panch Mahals,"1,059",11.40055885,36.7797064,8.0,20.38,23.75,0.0,0.0,0.0,2.9,1.0,0.51,0.58,0.61,2.5,0.64,0.68,1
Dohad,915,11.4189657,37.12657325,0.0,2.3,21.54,1.5,0.0,0.0,2.08,1.17,0.59,0.7,0.48,0.0,1.01,0.71,0
Vadodara,"1,666",11.153579400000002,36.59060935,6.64,11.84,26.77,0.5,0.0,0.0,2.85,0.84,0.84,0.6,0.38,0.0,0.5,0.69,0
Narmada,"1,107",10.93785875,36.7797064,18.87,24.5,13.24,0.0,0.0,0.0,2.87,0.79,0.59,0.6,0.48,0.0,0.0,0.57,1
Bharuch,"1,860",10.8525679,36.4979374,10.18,13.5,7.46,0.0,0.0,0.0,2.52,0.88,0.67,0.37,0.42,0.0,0.0,0.74,1
Surat,"2,242",10.58512005,36.415530350000004,8.11,7.89,1.06,3.0,0.0,0.0,1.65,0.72,0.47,0.45,0.66,0.0,0.41,0.68,5
The Dangs,"1,019",10.412689050000001,36.8503544,5.7,2.0,2.5,0.0,0.0,16.09,2.17,0.48,0.25,2.83,0.48,0.0,0.19,0.3,5
Navsari,"1,927",10.473350949999999,36.476017399999996,6.24,3.97,0.0,0.0,0.0,11.56,2.97,1.57,1.44,1.16,0.45,0.25,0.37,0.62,5
Valsad,"3,169",10.29961745,36.46712254999999,5.73,10.0,0.0,0.0,0.0,11.16,2.74,1.26,1.24,1.22,0.27,1.0,0.0,0.57,5
Diu,"1,763",10.357204699999999,35.49368595,0.0,6.05,0.0,2.75,0.0,0.0,0.54,0.37,0.3,0.29,0.0,0.0,0.0,0.36,2
Daman,"2,279",10.1986868,36.416399549999994,11.8,2.11,0.0,0.0,0.0,0.0,1.46,1.21,0.7,0.81,0.5,0.0,0.25,0.39,5
Dadra & Nagar Haveli,"1,572",10.13889355,36.532069799999995,5.57,2.97,0.0,0.0,0.0,6.63,2.32,0.98,0.89,1.44,0.58,0.0,1.07,0.58,5
Nandurbar,"1,366",10.687775349999999,37.121382200000006,14.65,9.38,10.1,0.0,1.61,3.0,1.88,1.29,0.59,1.57,0.38,0.0,0.66,0.56,5
Dhule,"1,423",10.45211005,37.38744895,8.95,10.94,1.0,0.0,0.76,0.62,1.79,0.92,0.63,0.77,0.8,0.0,0.5,0.58,5
Jalgaon,"1,610",10.5038289,37.78130195000001,10.32,7.78,2.0,2.0,1.28,1.67,1.45,1.02,0.79,0.91,0.59,0.0,1.61,0.76,5
Buldana,"1,171",10.26460735,38.092085049999994,9.74,2.58,1.7,0.0,0.0,0.0,2.07,0.74,0.48,0.64,0.29,0.0,0.11,0.6,5
Akola,"1,454",10.35296725,38.51095095,9.54,2.49,0.0,0.0,0.0,0.0,2.11,0.54,0.49,0.53,0.71,0.0,0.0,0.72,5
Washim,"1,189",10.055956150000002,38.5656293,9.08,5.03,0.0,0.0,0.0,0.0,1.96,0.79,0.54,0.53,0.55,0.0,0.0,0.6,5
Amravati,"1,920",10.4687119,38.88977565,5.91,3.77,1.0,0.0,0.0,0.0,2.5,0.59,0.76,0.53,0.73,0.0,0.5,0.46,5
Wardha,"1,608",10.3726595,39.3010973,4.54,1.0,0.0,0.0,0.0,0.0,2.64,0.88,0.48,0.48,0.58,1.0,0.0,0.52,2
Nagpur,"1,904",10.5729002,39.5440773,3.13,1.17,0.0,0.0,0.0,0.22,2.32,0.63,0.54,0.61,0.61,0.89,0.0,0.77,2
Bhandara,"1,364",10.58750565,39.827912100000006,1.49,0.0,0.0,0.0,0.0,0.0,1.85,0.57,0.55,0.53,0.48,1.22,0.26,0.48,2
Gondiya,"1,338",10.73122455,40.11048864999999,1.18,0.0,0.0,0.0,0.0,0.0,1.65,0.73,0.43,0.87,0.52,1.03,0.25,0.51,2
Gadchiroli,"1,346",10.092435499999999,39.997397799999995,1.28,0.0,0.0,0.0,0.0,0.0,2.08,0.92,0.49,0.59,0.5,1.57,0.0,0.71,2
Chandrapur,"1,345",9.98522985,39.65074225,1.12,0.0,0.0,0.0,0.0,0.0,2.24,0.49,0.6,0.51,0.52,1.73,0.0,0.77,2
Yavatmal,"1,393",10.19439685,39.06020365,7.91,2.09,0.0,0.0,0.5,0.0,2.5,0.59,0.69,0.63,0.72,0.5,0.84,0.43,5
Nanded,"1,432",9.569125699999999,38.660477750000005,15.01,21.1,0.0,0.0,0.7,1.0,2.05,1.3,0.8,0.84,0.0,0.0,0.0,0.81,1
Hingoli,"1,425",9.858685150000001,38.5746861,13.93,0.0,0.0,0.0,0.8,1.0,2.47,1.45,0.74,1.01,1.26,0.0,0.0,1.05,5
Parbhani,"1,382",9.6304979,38.388332500000004,12.8,4.32,0.0,0.0,0.64,0.5,1.65,0.98,0.63,0.7,0.53,0.0,0.0,0.71,5
Jalna,"1,041",9.914844650000001,37.94001525,9.59,9.28,0.0,0.0,0.61,1.0,1.63,0.93,0.85,0.67,0.84,0.0,0.25,0.61,5
Aurangabad,"1,377",9.935122,37.6175802,5.92,11.02,0.0,0.0,0.32,0.0,1.24,0.67,0.62,0.6,0.4,0.0,0.2,0.78,5
Nashik,"1,964",9.99872665,36.894901149999995,11.09,9.75,7.64,10.15,1.01,16.86,1.36,0.91,0.63,0.71,0.51,0.5,0.0,0.8,5
Thane,"2,374",9.60916535,36.48904485,4.97,4.78,1.77,0.0,9.0,18.24,2.17,0.98,0.9,1.03,0.62,4.55,0.77,0.63,5
Mumbai,"2,953",9.576911550000002,36.4375893,4.87,2.63,1.14,0.0,2.0,3.57,2.08,0.87,0.76,0.72,0.55,1.6,0.42,0.69,5
Raigarh,"1,479",9.24497915,36.348263700000004,5.4,5.09,0.0,0.0,0.0,7.71,1.59,1.23,1.29,1.04,0.44,0.0,0.41,0.5,5
Pune,"2,282",9.26021515,36.928371850000005,7.13,6.96,9.0,12.0,0.63,0.0,1.39,0.9,0.69,0.62,0.61,0.25,0.49,0.82,5
Ahmadnagar,"1,421",9.54760375,37.3747958,9.29,14.21,4.95,3.14,1.46,9.83,1.28,1.11,0.79,0.67,0.41,0.0,2.0,0.81,5
Bid,"1,673",9.49454465,37.88003925,9.23,10.07,0.0,0.0,0.95,0.5,1.29,0.81,0.65,0.66,0.44,0.0,0.26,0.74,5
Latur,"1,597",9.204396699999998,38.2801914,19.52,3.0,1.0,1.0,0.77,1.0,2.67,1.44,0.87,0.83,0.65,0.25,1.0,0.82,5
Osmanabad,"1,318",9.09303295,38.02097045000001,15.3,9.72,0.0,0.0,0.83,0.94,1.96,0.97,0.99,0.98,0.74,1.14,1.0,0.78,5
Solapur,"1,675",8.8299594,37.9531953,15.58,11.11,10.74,0.0,0.91,0.87,1.97,0.97,1.03,0.98,0.65,1.0,1.0,0.86,5
Satara,"1,672",8.84023195,37.0091305,10.35,7.87,0.0,0.0,1.0,10.0,1.02,0.71,0.47,0.8,0.43,0.88,0.19,0.83,5
Ratnagiri,"1,425",8.4951075,36.65601165,4.2,6.7,0.0,0.0,0.0,9.09,1.17,0.93,0.85,0.58,0.65,1.0,0.0,0.65,5
Sindhudurg,"1,594",8.17460965,36.7797064,5.15,0.0,7.0,4.56,0.5,5.2,0.99,0.7,0.59,0.58,0.27,0.0,0.0,0.44,5
Kolhapur,"1,676",8.352493650000001,37.12162635,9.35,8.21,0.0,3.88,0.56,9.53,1.28,0.92,0.77,0.63,0.38,0.0,0.0,0.64,5
Sangli,"1,464",8.42619865,37.290738649999994,11.38,5.16,5.0,0.5,0.5,0.0,1.02,0.83,0.64,0.55,0.44,1.0,0.0,0.49,5
Adilabad,"1,479",9.7115256,39.22356485,6.62,0.0,3.79,0.0,0.0,0.0,1.48,1.13,0.64,0.61,0.5,0.0,0.5,0.65,5
Nizamabad,"1,149",9.141823050000001,42.007049200000004,4.83,0.0,0.0,0.0,0.0,0.0,1.34,1.23,1.05,0.73,0.0,0.0,0.0,0.72,2
Karimnagar,"1,458",9.1945168,39.569930049999996,7.55,0.0,0.0,0.0,0.0,0.0,0.96,0.85,0.49,0.45,0.0,0.0,0.0,0.3,5
Medak,"1,280",8.72334075,39.17869495000001,5.61,0.0,0.0,0.0,0.0,0.0,1.2,0.85,0.44,0.99,0.0,0.0,0.0,0.65,2
Hyderabad and Rangar,"2,784",8.706313699999999,39.1339785,3.32,0.0,0.0,0.73,0.0,1.59,2.07,0.88,0.99,1.0,0.37,0.0,0.31,0.7,2
Rangareddi,"1,811",7.45258985,39.99742404999999,9.74,1.0,3.0,0.5,0.0,1.17,1.97,0.72,0.68,0.96,0.65,1.0,0.31,0.81,5
Mahbubnagar,"1,364",8.192071799999999,39.05541395,6.63,0.0,2.5,0.5,0.0,2.09,2.28,0.79,0.94,0.85,0.0,0.0,0.33,0.44,5
Nalgonda,"1,486",8.594149900000001,39.599997450000004,3.25,0.0,0.0,0.0,0.0,1.26,1.65,0.83,0.74,1.14,0.0,0.5,0.4,1.1,2
Warangal,"1,754",8.5071552,40.1879553,10.62,1.0,0.0,0.0,0.0,0.97,1.86,1.03,0.7,0.75,0.0,0.0,0.87,0.57,5
Khammam,"1,639",8.817548050000001,40.3163458,2.66,0.0,0.0,0.0,0.0,1.0,1.67,0.77,0.69,0.73,0.67,0.0,0.0,0.48,2
Srikakulam,"1,470",9.14848735,41.94839065,0.0,0.0,0.0,0.38,0.0,3.13,1.96,0.74,0.5,1.17,0.63,0.0,0.53,0.47,2
Vizianagaram,"1,355",9.0533288,41.697775299999996,0.0,2.0,0.29,0.53,0.0,4.45,1.37,0.75,1.39,1.04,0.53,0.0,0.35,0.5,2
Visakhapatnam,"1,464",8.84340795,41.60924075,0.0,0.0,0.74,0.31,8.31,4.74,1.43,0.81,0.72,1.13,0.59,1.0,0.36,0.51,2
East Godavari,"1,558",8.660625,41.02035685,0.5,0.0,1.0,0.71,0.25,1.2,1.1,0.55,0.45,1.27,0.61,0.0,0.69,0.46,2
West Godavari,"1,637",8.458709050000001,40.66997070000001,1.0,0.0,1.0,0.5,1.0,1.35,1.68,0.61,0.79,1.64,0.37,0.44,0.46,0.63,2
Krishna,"2,005",8.3049957,40.36072085,4.91,0.0,0.0,0.97,0.0,1.2,1.76,0.78,2.98,1.76,0.56,0.84,0.44,0.7,2
Guntur,"1,645",8.15332625,40.2182701,2.19,0.25,1.02,0.1,0.0,0.94,1.59,0.62,0.17,1.35,0.0,0.0,0.0,0.73,2
Prakasam,"1,500",7.6742315,39.780172,2.16,0.0,0.0,0.0,0.0,1.14,2.31,1.01,0.5,1.16,1.66,0.5,0.43,0.42,2
Nellore,"1,536",7.22129935,39.993228,0.0,2.0,0.0,0.0,0.0,1.22,1.94,0.8,1.24,1.26,0.61,0.0,0.42,0.49,2
Cuddapah,"1,654",7.23367705,39.41206695,2.27,1.76,0.0,0.0,0.0,1.43,1.85,0.53,0.0,0.8,0.0,0.5,0.38,0.53,2
Kurnool,"1,246",7.914062849999999,39.0186396,6.09,7.34,0.0,0.0,0.0,2.18,2.77,0.33,0.97,0.68,1.0,0.0,0.25,0.35,5
Anantapur,"1,307",7.340943849999999,38.80029555,4.44,1.37,1.96,0.0,0.0,4.25,2.54,0.4,4.25,0.56,0.45,0.0,0.36,0.85,5
Chittoor,"1,585",6.608588,39.550164450000004,0.69,1.0,0.0,0.0,0.0,1.8,1.85,0.62,0.25,0.93,0.25,0.0,0.3,0.5,2
Belgaum,"1,405",7.92484765,37.24883705,10.66,1.06,9.41,0.0,1.0,1.55,1.33,0.84,0.64,0.49,0.59,0.65,0.3,0.51,5
Bagalkot,"1,083",8.086267750000001,37.8278603,11.71,1.92,3.42,0.0,0.0,2.82,1.45,0.86,0.72,0.42,0.77,0.0,0.48,0.44,5
Bijapur,"1,178",8.414940249999999,37.84125885,11.77,4.83,2.18,0.0,0.0,3.42,1.48,0.75,0.64,0.39,0.63,2.0,0.33,0.5,5
Gulbarga,"1,212",8.6648655,38.41714785,16.69,6.99,0.0,0.0,0.0,0.0,3.26,0.87,0.92,0.69,0.91,0.0,0.0,0.57,5
Bidar,"1,184",8.95743995,38.75230505,14.46,2.08,0.0,0.0,0.0,0.0,2.92,1.08,1.29,0.95,0.0,0.0,0.0,0.75,5
Raichur,"1,125",8.10600155,38.671964149999994,12.08,28.49,0.0,0.0,0.0,5.0,2.52,0.54,0.58,0.52,0.5,0.0,0.51,0.3,1
Koppal,"1,100",7.67535405,38.07771555,16.47,10.5,0.0,0.0,0.0,3.29,2.29,0.67,0.3,0.45,0.0,0.0,0.56,0.79,5
Gadag,"1,393",7.716232549999999,37.819016850000004,7.77,4.0,0.0,0.0,0.0,1.06,1.25,0.87,0.0,0.35,0.78,0.5,0.28,0.5,5
Dharwad,"1,581",7.7294618,37.503904,10.39,3.5,0.0,0.0,0.0,2.62,1.79,0.88,2.22,0.56,0.48,0.69,0.9,0.38,5
Uttara,"1,466",7.39685325,37.34344075,8.97,0.0,0.0,0.0,0.0,4.04,1.11,0.72,0.44,0.61,0.4,0.0,0.61,0.49,5
Haveri,"1,351",7.3979513500000005,37.698562700000004,12.7,0.0,0.0,0.0,0.0,3.33,2.06,0.84,1.0,0.5,0.42,0.0,0.32,0.4,5
Bellary,"1,111",7.5696966,38.4607214,12.33,0.0,0.0,0.0,0.0,3.6,2.21,0.5,0.87,0.45,0.37,0.48,0.76,0.33,5
Chitradurga,"1,092",7.1152797,38.19922685,8.66,6.0,0.0,0.0,0.0,10.71,2.09,0.42,0.4,0.3,0.37,1.0,0.69,0.35,5
Davanagere,"1,209",7.233171899999999,37.96191985,6.93,0.0,0.0,0.0,0.0,6.28,1.35,0.72,0.52,0.46,0.43,1.0,0.81,0.31,5
Shimoga,"1,262",6.96496495,37.7840505,9.45,5.0,3.0,0.0,0.0,6.34,0.97,0.48,0.2,0.35,0.29,0.2,0.23,0.34,5
Udupi,"2,056",6.67044035,37.37107135,0.0,0.0,0.0,0.0,0.0,1.69,0.69,0.64,0.77,0.65,0.6,0.4,0.61,0.61,2
Chikmagalur,"1,178",6.657628999999999,37.8877009,2.84,0.0,0.0,0.0,4.0,5.5,0.99,0.23,0.0,0.36,0.39,0.0,0.26,0.23,5
Tumkur,"1,158",6.6695838499999995,38.5569992,1.25,0.0,0.0,0.0,0.0,15.63,1.76,0.69,0.48,0.51,0.39,0.5,1.23,0.46,5
Kolar,"1,676",6.567872299999999,39.066280549999995,1.5,0.0,1.0,0.0,4.5,15.82,1.97,0.87,0.71,0.69,0.46,0.1,0.88,0.41,5
Bangalore,"3,085",6.48579935,38.79728135,1.65,0.0,0.0,0.0,0.0,7.0,1.81,0.79,0.61,0.93,0.49,0.0,0.67,0.43,5
Bangalore Rural,"1,643",6.642349650000001,38.80389325,0.0,0.0,2.0,0.0,0.0,14.18,2.1,0.64,0.52,0.63,0.43,0.0,0.0,0.52,5
Mandya,"1,647",6.26107835,38.45045955,6.53,0.0,0.0,0.0,5.0,11.51,1.41,0.38,0.26,0.64,0.52,0.15,0.26,0.61,5
Hassan,"1,264",6.5034070999999996,38.049775950000004,0.0,0.0,1.0,0.0,0.0,11.2,0.9,0.47,0.5,0.41,0.42,0.0,0.31,0.4,5
Dakshina Kannada,"2,109",6.4218907,37.62395305,4.27,0.0,0.0,0.0,0.0,1.59,0.74,0.65,0.78,0.98,0.63,0.0,0.52,0.55,5
Kodagu,"3,968",6.1687471,37.903454100000005,0.0,0.0,0.0,0.0,0.0,1.98,0.72,0.61,0.54,0.66,0.42,0.0,0.42,0.68,2
Mysore,"1,585",6.1479052,38.31969025,4.68,0.0,0.0,0.0,0.0,8.45,1.59,0.39,0.0,0.7,0.4,0.0,0.17,0.4,5
Chamarajanagar,"1,382",5.96307355,38.4718656,3.6,0.0,0.0,0.0,0.0,10.47,1.71,0.74,0.0,0.62,0.84,0.0,0.16,0.98,5
Ramanagar,"1,396",7.7090571,37.2406482,3.0,0.0,0.0,0.0,0.0,13.93,1.91,0.72,0.0,1.23,0.46,0.0,0.52,0.49,5
Chikkaballapura,"1,340",6.7155773000000005,38.8569729,0.0,0.0,0.0,0.0,0.0,16.52,2.27,0.81,0.5,0.61,0.59,0.0,2.0,0.58,5
North Goa,"2,548",7.758155599999999,36.99150145000001,5.41,0.0,0.0,0.0,1.0,1.35,0.8,0.77,0.74,0.51,0.69,0.0,0.86,0.58,5
South Goa,"2,854",7.55883,37.061997999999996,7.98,0.0,0.0,0.0,1.13,1.42,0.77,0.85,0.65,0.62,0.66,0.0,0.29,0.55,5
Lakshadweep,"2,863",4.1477204,36.5244864,0.0,0.0,0.0,0.0,0.0,0.5,1.84,1.34,1.0,1.07,1.16,1.13,0.0,0.0,2
Kasaragod,"1,305",6.25511195,37.4925839,0.0,0.0,0.0,0.0,0.0,0.5,0.53,0.62,0.51,0.69,0.61,0.0,0.25,0.33,2
Kannur,"1,633",5.93723875,37.6851831,0.0,0.0,0.0,0.0,0.0,3.0,0.68,0.86,0.62,0.95,0.78,0.73,0.0,0.08,2
Wayanad,"2,061",5.851603,38.04169995,0.0,0.0,0.0,0.4,0.0,0.9,0.46,0.76,0.31,0.38,0.62,0.0,1.0,0.12,2
Kozhikode,"1,884",5.62937655,37.890205,0.0,0.0,0.0,0.0,0.0,1.41,0.52,0.86,1.0,0.6,0.57,0.56,0.84,0.29,2
Malappuram,"1,621",5.53659095,38.03699995,0.0,0.0,0.0,0.0,0.0,0.88,0.53,0.92,0.52,0.72,0.8,0.0,0.25,0.44,2
Palakkad,"1,766",5.393365150000001,38.3273966,0.0,0.0,0.0,0.0,0.0,0.79,0.68,0.6,0.1,0.87,0.75,0.0,1.02,0.37,2
Thrissur,"2,286",5.2638207999999995,38.10721745,0.0,0.0,0.0,0.1,0.0,1.08,1.04,0.71,0.63,0.83,0.81,0.97,0.52,0.4,2
Ernakulam,"2,616",4.990817900000001,38.149942100000004,0.0,0.5,1.06,0.16,0.0,0.69,0.75,0.79,0.71,0.76,0.72,1.35,0.42,0.81,2
Idukki,"2,487",4.9069038,38.4648677,3.0,0.0,0.0,0.0,0.0,0.0,0.6,0.67,3.0,0.69,0.66,0.0,0.0,0.48,2
Kottayam,"2,809",4.7957834,38.26107655,0.0,0.0,0.0,0.0,0.0,1.43,0.62,0.76,1.0,0.91,0.77,1.5,1.05,0.41,2
Alappuzha,"2,193",4.7490333499999995,38.1694242,0.0,0.0,0.0,0.0,0.0,0.62,0.57,0.84,0.0,0.89,0.55,0.5,0.5,0.5,2
Pathanamthitta,"2,241",4.6323791,38.3935207,0.0,0.0,0.0,0.0,0.0,0.91,0.47,0.57,0.5,0.83,0.54,0.0,0.5,0.12,2
Kollam,"2,200",4.4466059,38.3070698,0.0,0.0,0.0,0.0,0.0,1.28,0.54,0.99,0.64,1.11,0.7,0.54,0.43,0.44,2
Thiruvananthapuram,"2,567",4.2620695500000005,38.4683188,0.0,0.0,0.43,0.42,0.0,0.72,0.58,0.86,1.52,1.26,0.55,0.58,0.49,0.68,2
Thiruvallur,"2,227",6.572221300000001,39.9470039,0.0,2.43,1.0,0.73,0.0,1.68,1.64,0.56,0.88,1.29,0.64,0.0,0.35,0.54,2
Chennai,"2,852",6.5413401,40.1353592,0.0,0.0,0.5,0.0,0.0,1.21,1.71,0.62,0.59,1.32,0.6,0.5,0.39,0.44,2
Kancheepuram,"2,041",6.41708675,39.8518201,2.0,0.99,0.0,0.0,2.0,2.06,1.73,0.48,0.42,1.43,0.56,0.0,0.39,0.46,2
Vellore,"1,326",6.4582583499999995,39.566249299999996,0.0,0.0,0.0,2.7,1.56,2.69,1.68,0.52,0.0,1.46,0.54,0.0,0.43,0.48,2
Dharmapuri,"1,717",6.05326355,39.06807045000001,4.03,4.52,2.0,0.0,0.0,3.22,1.76,0.55,0.0,0.98,0.25,0.0,0.48,0.29,5
Tiruvannamalai,"1,213",6.11264205,39.53734785,10.0,6.55,0.0,0.0,0.0,2.1,1.64,0.43,0.25,1.35,0.37,1.0,0.36,0.53,5
Viluppuram,883,5.96844485,39.743630950000004,0.0,0.0,0.0,0.0,0.0,0.88,1.27,0.2,1.79,1.34,0.15,0.0,0.49,0.2,2
Salem,"1,418",5.8321625,39.0730071,0.0,0.0,0.0,0.0,0.0,3.61,1.78,0.66,0.8,1.19,0.61,0.0,0.48,0.53,2
Namakkal,"1,638",5.60971955,39.083861799999994,10.0,5.82,0.0,0.0,0.0,1.26,1.53,0.59,0.43,1.22,0.46,0.0,0.65,0.97,5
Erode,"1,779",5.6705182,38.8585821,1.5,1.0,2.08,0.0,0.0,2.2,1.43,0.33,0.17,1.03,0.49,0.5,0.27,0.48,2
The Nilgiris,"1,516",5.74580215,38.36682605,0.0,0.0,0.0,0.0,0.0,1.34,1.19,0.6,1.0,1.03,0.66,0.0,0.43,0.8,2
Coimbatore,"2,267",5.508422250000001,38.47791605,0.1,4.8,0.0,0.0,0.0,1.26,1.31,0.66,0.7,1.21,0.45,0.25,0.28,0.45,2
Dindigul,"1,674",5.18365615,38.990145299999995,0.0,1.73,3.0,0.0,0.0,1.24,1.42,0.58,1.0,1.15,0.31,0.26,0.49,0.39,2
Karur,"1,637",5.4800389,39.0383018,2.0,0.0,3.0,0.0,0.0,2.15,1.64,0.58,0.25,1.33,0.34,0.0,0.67,0.3,2
Tiruchirappalli,"1,674",5.395241650000001,39.35233625,0.0,0.0,2.59,0.0,2.3,1.5,1.83,0.42,0.0,1.44,0.54,0.0,0.58,0.65,2
Perambalur,"2,368",5.620491950000001,39.43328665,2.0,0.0,0.0,0.0,0.0,1.9,1.88,0.42,0.0,1.54,0.0,0.0,0.93,0.68,2
Ariyalur,"1,448",5.57002925,39.539314049999994,0.25,0.25,1.29,0.0,0.0,0.47,1.59,0.39,0.0,1.33,0.5,0.0,0.58,0.0,2
Cuddalore,"1,056",5.8723495,39.884012150000004,0.0,1.5,0.0,0.0,0.0,3.47,1.31,0.24,0.34,1.28,0.93,0.0,0.34,0.2,2
Nagapattinam,"1,529",5.3828040999999995,39.9211944,0.5,0.67,0.3,0.0,0.0,1.33,1.41,0.4,3.0,1.59,0.18,0.0,0.28,0.38,2
Thiruvarur,"1,642",5.385659349999999,39.8184987,0.0,0.0,0.0,0.0,0.0,0.95,1.26,0.31,0.5,1.25,0.39,0.0,0.26,0.25,2
Thanjavur,"1,798",5.3934997000000005,39.5689137,0.0,0.0,2.0,0.0,0.0,1.38,1.33,0.36,0.5,1.26,0.34,0.0,0.32,0.34,2
Pudukkottai,"1,540",5.1898315,39.4104227,0.0,0.0,0.65,0.0,0.0,1.9,1.78,0.58,0.32,1.53,0.68,0.5,0.56,0.84,2
Sivaganga,"1,342",4.921649950000001,39.24043875,0.5,0.0,0.0,0.0,0.0,0.66,0.94,0.23,0.5,1.14,1.77,0.0,0.25,0.52,2
Madurai,"1,755",4.96260035,39.059887700000004,0.0,0.0,0.0,0.5,0.5,1.89,1.46,0.58,1.0,1.21,0.31,0.35,0.52,0.5,2
Theni,"1,527",5.0051829,38.73840575,0.0,0.0,0.0,0.0,0.0,1.43,1.34,0.53,0.0,1.09,0.58,0.2,0.51,0.0,2
Virudhunagar,"1,630",4.7840058,38.98122175,1.0,0.0,2.0,0.0,3.0,0.79,1.1,0.53,1.0,1.04,0.25,0.45,0.35,1.0,2
Ramanathapuram,"1,342",5.49872745,38.49579805,0.0,0.0,0.0,0.0,0.0,0.69,1.12,0.45,0.0,1.04,0.33,0.49,0.37,0.2,2
Thoothukkudi,"1,309",4.382083049999999,39.06741804999999,0.0,0.0,1.0,0.0,0.0,1.56,1.22,0.54,0.5,1.17,0.47,0.2,0.39,0.39,2
Tirunelveli,"1,525",4.356956299999999,38.87832615,0.0,0.0,0.0,0.25,0.5,1.06,1.45,0.58,1.0,1.38,0.49,0.2,0.43,0.46,2
Kanniyakumari,"2,483",4.0441532,38.76922535,0.0,0.0,0.0,0.0,0.0,1.13,0.96,0.55,0.0,1.22,0.34,0.0,0.36,0.34,2
Krishnagiri,"1,872",6.259305650000001,39.10686825,0.97,1.06,0.0,0.0,0.0,4.88,1.83,0.65,0.0,1.07,0.49,0.0,0.65,0.44,2
Yanam,"1,806",8.363595599999998,41.10878875,0.0,0.0,0.6,0.5,0.0,1.32,0.99,0.58,0.0,1.44,0.23,0.0,0.31,0.37,2
Pondicherry,"2,582",5.9569299,39.907236100000006,0.0,1.0,0.0,0.0,2.0,1.7,1.61,0.48,0.55,1.61,0.71,0.1,0.59,0.31,2
Mahe,"1,897",5.851357900000001,37.7682021,0.0,0.0,0.0,0.0,0.0,0.0,0.54,1.0,0.0,0.7,0.3,0.0,1.53,0.0,2
Karaikal,"2,621",5.4627199,39.9190028,0.0,0.0,0.0,0.0,0.0,1.73,1.48,0.57,0.0,1.69,0.25,0.0,0.4,0.23,2
South Andamans,"3,460",5.91558405,46.32932005,0.0,0.0,0.0,0.0,0.0,0.0,1.71,1.03,1.43,0.92,0.7,0.5,0.0,0.6,2
Nicobars,"2,731",3.5602697500000002,46.892075150000004,0.0,0.0,0.0,0.0,0.0,0.0,2.17,1.98,1.74,0.94,0.84,0.0,0.0,0.5,2
North and Middle Andamans,"1,999",6.3259416,46.448812700000005,0.0,0.0,0.0,0.0,0.0,0.0,2.06,1.4,1.6,0.92,0.79,0.0,0.0,0.57,2
